Street address,City,State,Zip/Postal Code,Country,Latitude,Longitude,Postal Code,X
1787 Saint Clair Ave W #414, Toronto,ON,M6N1H9,Canada,43.673553,-79.461868,M6N,1H9
509 Beecroft Rd #1209, Toronto,ON,M2N0A3,Canada,43.778652,-79.417947,M2N,0A3
472 Crawford St, Toronto,ON,M6G3J8,Canada,43.656967,-79.42006,M6G,3J8
186 Macpherson Ave, Toronto,ON,M5R1W8,Canada,43.677945,-79.396728,M5R,1W8
195 McCaul St #909, Toronto,ON,M5T0E5,Canada,43.6567,-79.392206,M5T,0E5
30 Roehampton Ave UNIT 1902, Toronto,ON,M4P0B9,Canada,43.708432,-79.397532,M4P,0B9
84 Old Forest Hill Rd, Toronto,ON,M5P2R5,Canada,43.698984,-79.418189,M5P,2R5
625 Queen St E #607, Toronto,ON,M4M1G7,Canada,43.658001,-79.352987,M4M,1G7
320 Dixon Rd #506, Toronto,ON,M9R1S8,Canada,43.696822,-79.552528,M9R,1S8
45 Manning Ave, Toronto,ON,M6J2K3,Canada,43.647598,-79.408882,M6J,2K3
41 Pinto Dr, Toronto,ON,M2J3T9,Canada,43.791871,-79.339242,M2J,3T9
3 Chilcot Ave, Toronto,ON,M9W1T9,Canada,43.713267,-79.551602,M9W,1T9
2 Sonic Way #1708, Toronto,ON,M3C0P2,Canada,43.719497,-79.336408,M3C,0P2
53 Hazelton Ave, Toronto,ON,M5R2E3,Canada,43.672448,-79.393529,M5R,2E3
80 John St #3201, Toronto,ON,M5V3X4,Canada,43.646874,-79.390188,M5V,3X4
7 Carlton St #704, Toronto,ON,M5B2M3,Canada,43.661094,-79.38259,M5B,2M3
37 Pringdale Gardens Cir, Toronto,ON,M1J0B1,Canada,43.742145,-79.24373,M1J,0B1
10 Ed Clark Gdns #14, Toronto,ON,M6N3A9,Canada,43.674272,-79.46257,M6N,3A9
12 Waring Ct, Toronto,ON,M2N4G7,Canada,43.776906,-79.401025,M2N,4G7
60 Colborne St #1608, Toronto,ON,M5E0B7,Canada,43.649288,-79.374406,M5E,0B7
185 Roehampton Ave #2907, Toronto,ON,M4P0C6,Canada,43.708956,-79.392982,M4P,0C6
1 Sudbury St #101, Toronto,ON,M6J3W6,Canada,43.641055,-79.417998,M6J,3W6
51 Harrison Garden Blvd #707, Toronto,ON,M2N7G4,Canada,43.756666,-79.407784,M2N,7G4
36 Lisgar St #1010, Toronto,ON,M6J0C7,Canada,43.641739,-79.423316,M6J,0C7
5765 Yonge St #1204, Toronto,ON,M2M4H9,Canada,43.783102,-79.415166,M2M,4H9
41 Dearham Wood, Toronto,ON,M1E1S2,Canada,43.752788,-79.189511,M1E,1S2
17 Bathurst St #4205, Toronto,ON,M5V0N1,Canada,43.637435,-79.398908,M5V,0N1
25 Finchley Rd, Toronto,ON,M9A2X4,Canada,43.657715,-79.526342,M9A,2X4
665 Queen St E #412, Toronto,ON,M4M1G6,Canada,43.658361,-79.351159,M4M,1G6
3865 Lake Shore Blvd W #217, Toronto,ON,M8W0A2,Canada,43.589859,-79.545165,M8W,0A2
270 Queens Quay W #805, Toronto,ON,M5V3J2,Canada,43.639173,-79.386389,M5V,3J2
20 Amesbury Dr, Toronto,ON,M6M4H4,Canada,43.701261,-79.481426,M6M,4H4
160 The Donway W #403, Toronto,ON,M3C2G1,Canada,43.73383,-79.34844,M3C,2G1
30 Western Battery Rd #316, Toronto,ON,M6K3N9,Canada,43.639688,-79.412489,M6K,3N9
56 Grierson Rd, Toronto,ON,M9W3R3,Canada,43.715143,-79.545919,M9W,3R3
41 Markbrook Ln #614, Toronto,ON,M9V5E6,Canada,43.75828,-79.58639,M9V,5E6
600 Fleet St #717, Toronto,ON,M5V1B7,Canada,43.636698,-79.400078,M5V,1B7
170 Bayview Ave #711, Toronto,ON,M5A0M4,Canada,43.655305,-79.35375,M5A,0M4
11 Wellesley St W #612, Toronto,ON,M4Y0G4,Canada,43.664526,-79.385583,M4Y,0G4
295 Downsview Park Blvd, Toronto,ON,M3K0B6,Canada,43.73797,-79.476415,M3K,0B6
333 Adelaide St E #410, Toronto,ON,M5A4T4,Canada,43.651843,-79.369052,M5A,4T4
62 Schell Ave, Toronto,ON,M6E2S9,Canada,43.698338,-79.45509,M6E,2S9
64 Glengowan Rd, Toronto,ON,M4N1G4,Canada,43.721159,-79.392357,M4N,1G4
501 Adelaide St W #1108, Toronto,ON,M5V0R3,Canada,43.645422,-79.401295,M5V,0R3
260 Queens Quay W #1304, Toronto,ON,M5J2N3,Canada,43.63928,-79.385715,M5J,2N3
70 Annie Craig Dr #4802, Toronto,ON,M8V0G2,Canada,43.624739,-79.478962,M8V,0G2
801 King St W #325, Toronto,ON,M5V3C9,Canada,43.642734,-79.40707,M5V,3C9
43 Millburn Dr, Toronto,ON,M9B2W8,Canada,43.663271,-79.56261,M9B,2W8
32 Lyme Regis Cres, Toronto,ON,M1M1E4,Canada,43.718741,-79.228161,M1M,1E4
278 Dawlish Ave, Toronto,ON,M4N1J5,Canada,43.724134,-79.383185,M4N,1J5
52 Amiens Rd, Toronto,ON,M1E3S8,Canada,43.776204,-79.188186,M1E,3S8
120 Harrison Garden Blvd #2003, Toronto,ON,M2N,Canada,43.757733,-79.403149,M2N,M2N
21 Grand Magazine St #1907, Toronto,ON,M5V1B5,Canada,43.636466,-79.402056,M5V,1B5
215 Fort York Blvd #301, Toronto,ON,M5V4A2,Canada,43.636466,-79.404588,M5V,4A2
11 Beaumont Rd, Toronto,ON,M4W1V4,Canada,43.679924,-79.371459,M4W,1V4
5 Dewbourne Ave, Toronto,ON,M5P1Z1,Canada,43.699375,-79.420442,M5P,1Z1
542 Delaware Ave N, Toronto,ON,M6H2V2,Canada,43.672077,-79.432791,M6H,2V2
16 Yonge St SUITE 4006, Toronto,ON,M5E2A3,Canada,43.64325,-79.3764,M5E,2A3
185 Roehampton Ave #3201, Toronto,ON,M4P0C6,Canada,43.708956,-79.392982,M4P,0C6
3845 Lake Shore Blvd W UNIT 1601, Toronto,ON,M8W4Y3,Canada,43.590672,-79.544208,M8W,4Y3
50 Lombard St #1903, Toronto,ON,M5C2X4,Canada,43.651856,-79.376003,M5C,2X4
455 Wellington St W #509, Toronto,ON,M5V0V8,Canada,43.643152,-79.397171,M5V,0V8
87 Peter St UNIT 2915, Toronto,ON,M5V2G4,Canada,43.646776,-79.392435,M5V,2G4
408 Browns Line E #308, Toronto,ON,M8W0C3,Canada,43.601488,-79.54545,M8W,0C3
40 Homewood Ave #2803, Toronto,ON,M4Y2K2,Canada,43.664229,-79.375535,M4Y,2K2
1150 Briar Hill Ave #306, Toronto,ON,M6B0A9,Canada,43.703091,-79.452004,M6B,0A9
369 Albany Ave #5, Toronto,ON,M5R3E2,Canada,43.676334,-79.414275,M5R,3E2
38 Joe Shuster Way #106, Toronto,ON,M6K0A5,Canada,43.640417,-79.424649,M6K,0A5
1926 Lake Shore Blvd W #1805, Toronto,ON,M6S1A1,Canada,43.635856,-79.467386,M6S,1A1
60 Town Centre Ct #306, Toronto,ON,M1P0B1,Canada,43.7734,-79.255862,M1P,0B1
190 Borough Dr #302, Toronto,ON,M1P0B6,Canada,43.772874,-79.253995,M1P,0B6
1400 Kingston Rd #501, Toronto,ON,M1N0C2,Canada,43.686959,-79.272431,M1N,0C2
102 George Henry Blvd #15, Toronto,ON,M2J1E7,Canada,43.77432,-79.348116,M2J,1E7
9 Valhalla Inn Rd #501, Toronto,ON,M9B0B2,Canada,43.639837,-79.559418,M9B,0B2
31 Twyford Rd, Toronto,ON,M9A1W3,Canada,43.665533,-79.539719,M9A,1W3
861 Sheppard Ave W #15, Toronto,ON,M3H2T5,Canada,43.752102,-79.453675,M3H,2T5
125 Western Battery Rd #2207, Toronto,ON,M6K3R8,Canada,43.639868,-79.416734,M6K,3R8
3220 Sheppard Ave E #318, Toronto,ON,M1T0B7,Canada,43.777968,-79.312305,M1T,0B7
1 Oregon Trl, Toronto,ON,M9B1P4,Canada,43.639976,-79.552582,M9B,1P4
111 Newton Dr, Toronto,ON,M2M2N2,Canada,43.794606,-79.410102,M2M,2N2
278 Bloor St E #905, Toronto,ON,M4W3M4,Canada,43.672265,-79.380454,M4W,3M4
30 Anglesey Blvd #G2, Toronto,ON,M9A3B5,Canada,43.663784,-79.522679,M9A,3B5
55 Stewart St UNIT 625, Toronto,ON,M5V2V1,Canada,43.643237,-79.401278,M5V,2V1
2191 Yonge St #1708, Toronto,ON,M4S3H8,Canada,43.705666,-79.39739,M4S,3H8
271 Park Home Ave, Toronto,ON,M2R1A1,Canada,43.764323,-79.434004,M2R,1A1
1 King St W #2402, Toronto,ON,M5H1A1,Canada,43.648987,-79.37807,M5H,1A1
34 Greengate Rd, Toronto,ON,M3B1E8,Canada,43.739958,-79.364228,M3B,1E8
10 Wilby Cres #1603, Toronto,ON,M9N0B6,Canada,43.697794,-79.512333,M9N,0B6
85 Drewry Ave, Toronto,ON,M2M1C9,Canada,43.78598,-79.421249,M2M,1C9
5 Whitehall Rd, Toronto,ON,M4W2C5,Canada,43.683971,-79.38242,M4W,2C5
66 Fontainbleau Dr, Toronto,ON,M2M1N9,Canada,43.793138,-79.432029,M2M,1N9
57 Saint Joseph St #523, Toronto,ON,M5S0C5,Canada,43.665388,-79.388021,M5S,0C5
365 Beech Ave #219, Toronto,ON,M4E0C2,Canada,43.680037,-79.29045,M4E,0C2
80 Palace Pier Ct #101, Toronto,ON,M8V4C1,Canada,43.630714,-79.474027,M8V,4C1
100 Harrison Garden Blvd #L02, Toronto,ON,M2N0C2,Canada,43.756982,-79.4044,M2N,0C2
70 Forest Manor Rd #3410, Toronto,ON,M2J0A9,Canada,43.689144,-79.404683,M2J,0A9
284 Ellis Ave, Toronto,ON,M6S2X2,Canada,43.645729,-79.472703,M6S,2X2
86 17th St, Toronto,ON,M8V3K4,Canada,43.602095,-79.517563,M8V,3K4
3 Dailing Gate, Toronto,ON,M1B1Z3,Canada,43.791382,-79.22969,M1B,1Z3
120 Parliament St PENTHOUSE 2404, Toronto,ON,M5A0N6,Canada,43.653856,-79.363933,M5A,0N6
218 Pleasant Ave, Toronto,ON,M2M1M5,Canada,43.790667,-79.430102,M2M,1M5
210 Westmount Ave, Toronto,ON,M6E3M8,Canada,43.680554,-79.443098,M6E,3M8
11 Carisbrooke Sq, Toronto,ON,M1B4M2,Canada,43.81623,-79.214484,M1B,4M2
2335 1/2 Gerrard St E, Toronto,ON,M4E2E6,Canada,43.685302,-79.293178,M4E,2E6
160 Flemington Rd #512, Toronto,ON,M6A0A9,Canada,43.723077,-79.448251,M6A,0A9
39 Bushell Ave, Toronto,ON,M4M3B8,Canada,43.671322,-79.334877,M4M,3B8
133 Westminster Ave, Toronto,ON,M6R1N6,Canada,43.646774,-79.450533,M6R,1N6
11B Crawford St #11B, Toronto,ON,M6K3M3,Canada,43.640922,-79.413315,M6K,3M3
86 Sloping Sky Mews #TOWNHOUSE 6, Toronto,ON,M5V0B3,Canada,43.636887,-79.403026,M5V,0B3
993 Queen St W #223, Toronto,ON,M6J1H2,Canada,43.644646,-79.415649,M6J,1H2
32 Brookfield Rd, Toronto,ON,M2P1A9,Canada,43.741523,-79.400732,M2P,1A9
535 Brunswick Ave, Toronto,ON,M5R2Z6,Canada,43.673818,-79.410137,M5R,2Z6
88 Anthony Rd, Toronto,ON,M3K1B4,Canada,43.729155,-79.466301,M3K,1B4
36 Park Lawn Rd #203, Toronto,ON,M8V0E5,Canada,43.623467,-79.484321,M8V,0E5
82 Greensides Ave, Toronto,ON,M6G3P7,Canada,43.679843,-79.429992,M6G,3P7
259 Claremont St, Toronto,ON,M6J2N1,Canada,43.652938,-79.412094,M6J,2N1
570 Wellington St W #13A, Toronto,ON,M5V2X5,Canada,43.642841,-79.403108,M5V,2X5
51 Lady Bank Rd #501, Toronto,ON,M8Z0C9,Canada,43.624575,-79.511602,M8Z,0C9
8 The Esplanade #1908, Toronto,ON,M5E0A6,Canada,43.646227,-79.376346,M5E,0A6
58 Lytton Blvd, Toronto,ON,M4R1L3,Canada,43.71588,-79.403981,M4R,1L3
676 Richmond St W #106, Toronto,ON,M6J1C3,Canada,43.646269,-79.405919,M6J,1C3
80 North Dr, Toronto,ON,M9A4R2,Canada,43.678079,-79.501451,M9A,4R2
8 Eglinton Ave E #1910, Toronto,ON,M4P0C1,Canada,43.707141,-79.397703,M4P,0C1
2639 Lake Shore Blvd W, Toronto,ON,M8V1G5,Canada,43.603501,-79.492054,M8V,1G5
321 Concord Ave, Toronto,ON,M6H2P7,Canada,43.662575,-79.426988,M6H,2P7
11 Park Manor Dr, Toronto,ON,M9B5C1,Canada,43.650254,-79.557219,M9B,5C1
38 Dan Leckie Way #2209, Toronto,ON,M5V2V6,Canada,43.637492,-79.398104,M5V,2V6
65 Spring Garden Ave #1802, Toronto,ON,M2N6H9,Canada,43.764832,-79.409426,M2N,6H9
83 Anthony Rd, Toronto,ON,M3K1B5,Canada,43.72897,-79.465612,M3K,1B5
31 Russell Hill Rd, Toronto,ON,M4V2S9,Canada,43.681167,-79.402842,M4V,2S9
3 Pemberton Ave #2106, Toronto,ON,M2M4M1,Canada,43.780486,-79.413866,M2M,4M1
17 Regal Rd, Toronto,ON,M6H2J5,Canada,43.674962,-79.433701,M6H,2J5
60 Brian Harrison Way #302, Toronto,ON,M1P5J5,Canada,43.774024,-79.258007,M1P,5J5
399 Lake Promenade, Toronto,ON,M8W1C3,Canada,43.586922,-79.539539,M8W,1C3
141 Eastwood Ave, Toronto,ON,M1N3H4,Canada,43.694987,-79.269234,M1N,3H4
19 Western Battery Rd #1803, Toronto,ON,M6K3N9,Canada,43.63957,-79.411329,M6K,3N9
43 Rusholme Rd, Toronto,ON,M6J3H3,Canada,43.650755,-79.426961,M6J,3H3
6 Newmarket Ave, Toronto,ON,M4C1V7,Canada,43.689384,-79.307654,M4C,1V7
7 Ashley Park Rd, Toronto,ON,M9A4C9,Canada,43.662619,-79.516617,M9A,4C9
54 Judy Sgro Ave, Toronto,ON,M3L0E4,Canada,43.727778,-79.523194,M3L,0E4
50 Yorkville Ave #4403, Toronto,ON,M4W0A3,Canada,43.671667,-79.389667,M4W,0A3
100 Ardwold Gate, Toronto,ON,M5R2W2,Canada,43.680418,-79.409322,M5R,2W2
111 Knowles Dr, Toronto,ON,M1X1T4,Canada,43.825488,-79.213639,M1X,1T4
231 Falstaff Ave, Toronto,ON,M6L2G6,Canada,43.718179,-79.490279,M6L,2G6
50 Bruyeres Mews #718, Toronto,ON,M5V0H8,Canada,43.637658,-79.402351,M5V,0H8
48 Lockwood Rd, Toronto,ON,M4L3M8,Canada,43.669468,-79.310099,M4L,3M8
200 Manitoba St #210, Toronto,ON,M8Y3Y9,Canada,43.623676,-79.492078,M8Y,3Y9
1787 Saint Clair Ave W #917, Toronto,ON,M6N1H9,Canada,43.673553,-79.461868,M6N,1H9
84 Chad Cres, Toronto,ON,M1B2Z6,Canada,43.814889,-79.209796,M1B,2Z6
176 Castlefield Ave, Toronto,ON,M4R1G7,Canada,43.710283,-79.40786,M4R,1G7
42 Fishleigh Dr, Toronto,ON,M1N1H2,Canada,43.700556,-79.248654,M1N,1H2
43 Florida Cres, Toronto,ON,M9M1P4,Canada,43.735016,-79.543367,M9M,1P4
34 Kippendavie Ave, Toronto,ON,M4L3R4,Canada,43.666604,-79.303104,M4L,3R4
203 Parkmount Rd, Toronto,ON,M4J4V5,Canada,43.682084,-79.32556,M4J,4V5
7 Doncaster Ave, Toronto,ON,M4C1Y4,Canada,43.690493,-79.308029,M4C,1Y4
42 Charles St E #2810, Toronto,ON,M4Y0B7,Canada,43.669355,-79.384182,M4Y,0B7
1659 Gerrard St E, Toronto,ON,M4L2A9,Canada,43.675632,-79.31876,M4L,2A9
29 Tarsus Cres, Toronto,ON,M1C3W6,Canada,43.79372,-79.183513,M1C,3W6
101 Dunloe Rd, Toronto,ON,M5P2T7,Canada,43.696392,-79.413647,M5P,2T7
2 Bellefair Ave UNIT 306, Toronto,ON,M4L3T8,Canada,43.670263,-79.300053,M4L,3T8
225 Sumach St #2511, Toronto,ON,M5A0P8,Canada,43.661007,-79.360355,M5A,0P8
20 Edward St #1719, Toronto,ON,M5G0C5,Canada,43.657059,-79.382187,M5G,0C5
117 Omni Dr #15, Toronto,ON,M1P5A5,Canada,43.771256,-79.261225,M1P,5A5
8 Telegram Mews #622, Toronto,ON,M5V3Z5,Canada,43.640493,-79.394916,M5V,3Z5
104 Albany Ave, Toronto,ON,M5R3C4,Canada,43.668716,-79.411569,M5R,3C4
4060 Lawrence Ave E #108, Toronto,ON,M1E4V4,Canada,43.766351,-79.197594,M1E,4V4
20 Blue Jays Way #1106, Toronto,ON,M5V3W6,Canada,43.643797,-79.391668,M5V,3W6
17 Zorra St #701, Toronto,ON,M8Z0C8,Canada,43.621292,-79.52083,M8Z,0C8
897 Sheppard Ave W #202, Toronto,ON,M3H2T4,Canada,43.751649,-79.455201,M3H,2T4
77 Charles St W #906, Toronto,ON,M5S0B2,Canada,43.667717,-79.390434,M5S,0B2
125 Alicewood Ct, Toronto,ON,M9V3Y1,Canada,43.730833,-79.596435,M9V,3Y1
300 Mill Rd #A31, Toronto,ON,M9C4W7,Canada,43.638084,-79.583984,M9C,4W7
40 Fern Ave, Toronto,ON,M6R1K1,Canada,43.646039,-79.441856,M6R,1K1
290 Adelaide St W #2405, Toronto,ON,M5V1N1,Canada,43.647816,-79.391122,M5V,1N1
78 Harrison Garden Blvd #2305, Toronto,ON,M2N7E2,Canada,43.756049,-79.407113,M2N,7E2
104 Natal Ave, Toronto,ON,M1N3V6,Canada,43.714075,-79.254723,M1N,3V6
214 Antibes Dr, Toronto,ON,M2R3H8,Canada,43.781975,-79.448556,M2R,3H8
503 Beecroft Rd #515, Toronto,ON,M2N0A2,Canada,43.778232,-79.417772,M2N,0A2
163 Brickworks Ln, Toronto,ON,M6N5H8,Canada,43.675475,-79.468816,M6N,5H8
56 Amiens Rd, Toronto,ON,M1E3S8,Canada,43.776434,-79.188258,M1E,3S8
50 Ordnance St #1703, Toronto,ON,M6K0C9,Canada,43.639789,-79.409842,M6K,0C9
140 Brookside Dr, Toronto,ON,M4E2M2,Canada,43.680619,-79.306407,M4E,2M2
130 River St #2806, Toronto,ON,M5A0R8,Canada,43.661484,-79.358579,M5A,0R8
2885 Bayview Ave UNIT 717, Toronto,ON,M2K0A3,Canada,43.768608,-79.388063,M2K,0A3
20 Gladstone Ave #417, Toronto,ON,M6J0E9,Canada,43.643481,-79.427721,M6J,0E9
570 Oriole Pkwy, Toronto,ON,M4R2C2,Canada,43.705679,-79.406974,M4R,2C2
23 Radwell Cres, Toronto,ON,M1V2J4,Canada,43.81922,-79.289585,M1V,2J4
1603 Eglinton Ave W #504, Toronto,ON,M6E0A1,Canada,43.697042,-79.443072,M6E,0A1
801 Midland Ave, Toronto,ON,M1K4E8,Canada,43.733573,-79.257355,M1K,4E8
48 Gondola Cres, Toronto,ON,M1G2J3,Canada,43.767244,-79.209421,M1G,2J3
314 Rosemary Rd, Toronto,ON,M5P3E3,Canada,43.696839,-79.421627,M5P,3E3
18 Oaken Gtwy #18, North York,ON,M2P2A1,Canada,43.753729,-79.405545,M2P,2A1
88 Turtle Island Rd #5, Toronto,ON,M6A2M7,Canada,43.722474,-79.444115,M6A,2M7
2 Garden Cir, Toronto,ON,M4G2X8,Canada,43.694975,-79.375138,M4G,2X8
4978 Yonge St UNIT 1911, Toronto,ON,M2N7G8,Canada,43.76562,-79.412725,M2N,7G8
18 Earnbridge St, Toronto,ON,M6K1N3,Canada,43.643518,-79.432357,M6K,1N3
73 Maclean Ave, Toronto,ON,M4E2Z8,Canada,43.670799,-79.290289,M4E,2Z8
3 Biggar Ave, Toronto,ON,M6H2N5,Canada,43.678959,-79.433611,M6H,2N5
20 Fletcher Pl, Toronto,ON,M9R1K6,Canada,43.6912,-79.546078,M9R,1K6
20 Niagara St #PENTHOUSE 1, Toronto,ON,M5V3L8,Canada,43.642374,-79.400916,M5V,3L8
474 Russell Hill Rd, Toronto,ON,M5P2S7,Canada,43.697789,-79.413426,M5P,2S7
1346 Danforth Rd #901, Toronto,ON,M1J0A9,Canada,43.743558,-79.244826,M1J,0A9
112 Laurel Ave, Toronto,ON,M1K3J9,Canada,43.72521,-79.258113,M1K,3J9
20 Joe Shuster Way #202, Toronto,ON,M6K0A3,Canada,43.640144,-79.423917,M6K,0A3
11 Kingsway Cres, Toronto,ON,M8X2P9,Canada,43.653748,-79.504572,M8X,2P9
270 Brighton Ave, Toronto,ON,M3H4E9,Canada,43.757593,-79.458141,M3H,4E9
38 S Kingslea Dr, Toronto,ON,M8Y2A4,Canada,43.641624,-79.496401,M8Y,2A4
63 Ward St, Toronto,ON,M6H4A5,Canada,43.664115,-79.446402,M6H,4A5
816 Lansdowne Ave #1015, Toronto,ON,M6H4K6,Canada,43.665661,-79.447378,M6H,4K6
80 Chiswell Cres, Toronto,ON,M2N6E1,Canada,43.780901,-79.391894,M2N,6E1
6 Esterbrooke Ave #82, Toronto,ON,M2J2C2,Canada,43.779624,-79.352763,M2J,2C2
160 Howland Ave, Toronto,ON,M5R3B6,Canada,43.670989,-79.411014,M5R,3B6
58 Marine Parade Dr #1110, Toronto,ON,M8V4G1,Canada,43.627469,-79.477128,M8V,4G1
223 Kennedy Rd, Toronto,ON,M1N3P4,Canada,43.706363,-79.257097,M1N,3P4
28A Wilberton Rd, Toronto,ON,M4V1Z3,Canada,43.694932,-79.401617,M4V,1Z3
20 Stewart St #204, Toronto,ON,M5V1H6,Canada,43.643775,-79.400667,M5V,1H6
17 Maughan Cres, Toronto,ON,M4L3E4,Canada,43.670022,-79.316003,M4L,3E4
101 Clearbrooke Cir, Toronto,ON,M9W2E9,Canada,43.721799,-79.561522,M9W,2E9
85 The Bridle Path, Toronto,ON,M3C2P1,Canada,43.732687,-79.364782,M3C,2P1
85 Emmett Ave #1012, Toronto,ON,M6M5A2,Canada,43.686963,-79.50605,M6M,5A2
212 Saint Clair Ave W, Toronto,ON,M4V1R2,Canada,43.686366,-79.404449,M4V,1R2
11 Thornwood Rd, Toronto,ON,M4W2R8,Canada,43.681926,-79.385029,M4W,2R8
10 Blakley Ave, Toronto,ON,M6N3Y5,Canada,43.671732,-79.481226,M6N,3Y5
17 Strath Humber Ct, Toronto,ON,M9A4C8,Canada,43.661667,-79.515797,M9A,4C8
7 Appleby Ct, Toronto,ON,M9B5A1,Canada,43.654048,-79.549576,M9B,5A1
18 Munro Park Ave, Toronto,ON,M4E3M3,Canada,43.671794,-79.283123,M4E,3M3
7 Brimley Rd S #D78, Toronto,ON,M1M3W3,Canada,43.706276,-79.231863,M1M,3W3
20/22 Park Lane Cir,Toronto,ON,M3B1Z7,Canada,43.633001,-79.354953,M3B,1Z7
19 Country Ln,Toronto,ON,M2L1E1,Canada,43.74036,-79.380766,M2L,1E1
88 Forest Heights Blvd,Toronto,ON,M2L2K8,Canada,43.760595,-79.378477,M2L,2K8
45 Park Lane Cir,Toronto,ON,M3C2N3,Canada,43.730085,-79.369058,M3C,2N3
27 South Dr,Toronto,ON,M4W1R2,Canada,43.677229,-79.382582,M4W,1R2
17 Ardwold Gate,Toronto,ON,M5R2W1,Canada,43.678881,-79.407258,M5R,2W1
36 Old Colony Rd,Toronto,ON,M2L2J8,Canada,43.758104,-79.382893,M2L,2J8
253 Dunvegan Rd,Toronto,ON,M5P2P5,Canada,43.699453,-79.414977,M5P,2P5
45 Bayview Rdg,Toronto,ON,M2L1E3,Canada,43.741938,-79.387871,M2L,1E3
112 Mason Blvd,Toronto,ON,M5M3E3,Canada,43.741214,-79.412096,M5M,3E3
220 Victoria St #806,Toronto,ON,M5B2R6,Canada,43.654877,-79.379218,M5B,2R6
27 Devondale Ave,Toronto,ON,M2R2C9,Canada,43.777838,-79.435334,M2R,2C9
45 Pegasus Trl,Toronto,ON,M1G3N6,Canada,43.780196,-79.221561,M1G,3N6
73 Fishleigh Dr,Toronto,ON,M1N1H3,Canada,43.701371,-79.245529,M1N,1H3
1 Lake Shore Dr,Toronto,ON,M8V1Y9,Canada,43.601114,-79.497504,M8V,1Y9
12 Gradwell Dr,Toronto,ON,M1M2M9,Canada,43.71325,-79.235129,M1M,2M9
79 John St,Toronto,ON,M9N1J6,Canada,43.703998,-79.515164,M9N,1J6
20 Moccasin Trl,Toronto,ON,M3C1Y7,Canada,43.731688,-79.339069,M3C,1Y7
55 Lynnhaven Rd,Toronto,ON,M6A2K7,Canada,43.721312,-79.439612,M6A,2K7
129 Clansman Blvd,Toronto,ON,M2H1Y3,Canada,43.802346,-79.361476,M2H,1Y3
62 Portico Dr,Toronto,ON,M1G3R6,Canada,43.780543,-79.219347,M1G,3R6
579 Indian Rd,Toronto,ON,M6P2C3,Canada,43.65804,-79.456608,M6P,2C3
6 Elward Blvd,Toronto,ON,M1L3L2,Canada,43.691459,-79.281882,M1L,3L2
483 Dupont St #103,Toronto,ON,M6G1Y6,Canada,43.672797,-79.415295,M6G,1Y6
55 Regency Sq,Toronto,ON,M1E1N4,Canada,43.752281,-79.194912,M1E,1N4
30 High Point Rd,Toronto,ON,M3C2R3,Canada,43.731817,-79.368833,M3C,2R3
200 Murison Blvd UNIT 67,Toronto,ON,M1B3R9,Canada,43.800088,-79.202935,M1B,3R9
10 Greenyards Dr,Toronto,ON,M2M2R6,Canada,43.79625,-79.40879,M2M,2R6
23 Elba Ave,Toronto,ON,M1L4E9,Canada,43.699375,-79.274278,M1L,4E9
24 Sophia Dr, Toronto,ON,M1H1Z4,Canada,43.762867,-79.227694,M1H,1Z4
1 Strathgowan Ave #403, Toronto,ON,M4N0B3,Canada,43.718724,-79.400268,M4N,0B3
501 Adelaide St W #909, Toronto,ON,M5V0R3,Canada,43.645422,-79.401295,M5V,0R3
15 Helmsdale Cres, Toronto,ON,M9V3X8,Canada,43.747239,-79.603316,M9V,3X8
55 Deanscroft Sq, Toronto,ON,M1E4W8,Canada,43.764897,-79.176426,M1E,4W8
191 Parkmount Rd, Toronto,ON,M4J4V5,Canada,43.681804,-79.325548,M4J,4V5
21 Iceboat Ter PENTHOUSE 10, Toronto,ON,M5V4A9,Canada,43.640393,-79.397362,M5V,4A9
78 Carr St #TOWNHOUSE 32, Toronto,ON,M5T1B7,Canada,43.649695,-79.403974,M5T,1B7
650 Sheppard Ave E #215, Toronto,ON,M2K3E4,Canada,43.768577,-79.381429,M2K,3E4
1778 Dufferin St, Toronto,ON,M6E3P4,Canada,43.680272,-79.444278,M6E,3P4
33 Shore Breeze Dr E #1208, Toronto,ON,M8V0G1,Canada,43.623886,-79.479223,M8V,0G1
24 Coventry St, Toronto,ON,M1L0H1,Canada,43.692746,-79.276677,M1L,0H1
21 Groverdale Rd, Toronto,ON,M9C3M7,Canada,43.650171,-79.575026,M9C,3M7
80 Curzon St, Toronto,ON,M4M3B4,Canada,43.665284,-79.332659,M4M,3B4
8 Trent Ave #1205, Toronto,ON,M4C0A6,Canada,43.688207,-79.295862,M4C,0A6
65 Huntingdale Blvd UNIT 1507, Toronto,ON,M1W2P1,Canada,43.795184,-79.324378,M1W,2P1
198 Lawlor Ave, Toronto,ON,M4E3M1,Canada,43.685388,-79.290756,M4E,3M1
408 Browns Line S #312, Toronto,ON,M5W3T9,Canada,43.601697,-79.545232,M5W,3T9
1 King St W #1501, Toronto,ON,M5H1A1,Canada,43.648987,-79.37807,M5H,1A1
25 Clark St, Toronto,ON,M4M1M5,Canada,43.660183,-79.347772,M4M,1M5
64 Chandler Dr, Toronto,ON,M1G1Z3,Canada,43.765412,-79.220644,M1G,1Z3
10 Capreol Ct #902, Toronto,ON,M5V4B3,Canada,43.640268,-79.396014,M5V,4B3
215 Mill Rd, Toronto,ON,M9C1Y1,Canada,43.633835,-79.57625,M9C,1Y1
100 Rosethorn Ave, Toronto,ON,M6N3L1,Canada,43.679352,-79.463314,M6N,3L1
98 Spruce Hill Rd, Toronto,ON,M4E3G4,Canada,43.675156,-79.290203,M4E,3G4
63 Bannatyne Dr, Toronto,ON,M2L2P2,Canada,43.761125,-79.370406,M2L,2P2
533 Richmond St W PENTHOUSE 2, Toronto,ON,M5V3Y1,Canada,43.646874,-79.400841,M5V,3Y1
8 Lee Centre Dr #702, Toronto,ON,M1H3H8,Canada,43.780823,-79.247602,M1H,3H8
30 Nelson St #PENTHOUSE 101, Toronto,ON,M5V0H5,Canada,43.649062,-79.388476,M5V,0H5
9 Overton Pl, Toronto,ON,M3B1H1,Canada,43.741095,-79.345984,M3B,1H1
1328 Birchmount Rd #PENTHOUSE 9, Toronto,ON,M1R0B6,Canada,43.748506,-79.286068,M1R,0B6
717 Greenwood Ave, Toronto,ON,M4J4B6,Canada,43.683375,-79.332915,M4J,4B6
200 Woodbine Ave #601, Toronto,ON,M4L3P2,Canada,43.668935,-79.306142,M4L,3P2
8 Attila Ct, Toronto,ON,M9V4E5,Canada,43.736459,-79.597189,M9V,4E5
62 Kent Rd, Toronto,ON,M4L2X6,Canada,43.667307,-79.321014,M4L,2X6
200 Russell Hill Rd #502, Toronto,ON,M4V0B6,Canada,43.681737,-79.406631,M4V,0B6
45 Oldham Rd, Toronto,ON,M9A2B9,Canada,43.677488,-79.542254,M9A,2B9
29 Portico Dr, Toronto,ON,M1G3R5,Canada,43.779069,-79.22196,M1G,3R5
11 Brunel Ct #5005, Toronto,ON,M5V3Y3,Canada,43.639441,-79.393173,M5V,3Y3
103 Old Colony Rd, Toronto,ON,M2L2K3,Canada,43.758834,-79.374583,M2L,2K3
175 Teddington Park Ave, Toronto,ON,M4N2C7,Canada,43.734233,-79.396869,M4N,2C7
6 Wyndcliff Cres, Toronto,ON,M4A2K1,Canada,43.735574,-79.318059,M4A,2K1
40 Sylvan Valleyway #523, Toronto,ON,M5M4M3,Canada,43.724203,-79.415282,M5M,4M3
167 Wineva Ave, Toronto,ON,M4E2T5,Canada,43.672156,-79.295951,M4E,2T5
10 Gateway Blvd #402, Toronto,ON,M3C3A1,Canada,43.709781,-79.332708,M3C,3A1
2200 Lake Shore Blvd W #818, Toronto,ON,M8V1A4,Canada,43.622743,-79.481934,M8V,1A4
8 Rosebank Dr #7H, Toronto,ON,M1B5Z3,Canada,43.791844,-79.237284,M1B,5Z3
31 Antler St, Toronto,ON,M6P3R2,Canada,43.663867,-79.44993,M6P,3R2
799 Midland Ave, Toronto,ON,M1K4E8,Canada,43.733446,-79.25729,M1K,4E8
130 Neptune Dr #607, Toronto,ON,M6A1X5,Canada,43.730295,-79.441115,M6A,1X5
557 Logan Ave, Toronto,ON,M4K3B6,Canada,43.669004,-79.345758,M4K,3B6
302 Richview Ave, Toronto,ON,M5P3G5,Canada,43.695952,-79.422548,M5P,3G5
1 Monarchdale Ave, Toronto,ON,M6M2S6,Canada,43.698966,-79.493874,M6M,2S6
5 Wray Ct, Toronto,ON,M9V4K4,Canada,43.755083,-79.593103,M9V,4K4
56 Branstone Rd, Toronto,ON,M6E4E4,Canada,43.692013,-79.453838,M6E,4E4
5 Mabelle Ave #2328, Toronto,ON,M9A0C8,Canada,43.646719,-79.525449,M9A,0C8
437 Westmount Ave, Toronto,ON,M6E3N4,Canada,43.686951,-79.445233,M6E,3N4
35 Kirkdene Dr, Toronto,ON,M1C3A5,Canada,43.793789,-79.141364,M1C,3A5
136 Collier St, Toronto,ON,M4W1M3,Canada,43.67275,-79.384146,M4W,1M3
130 Morningview Trl, Toronto,ON,M1B5L2,Canada,43.815394,-79.199609,M1B,5L2
2800 Warden Ave #1004, Toronto,ON,M1W3Z6,Canada,43.795721,-79.315724,M1W,3Z6
4737 Jane St, Toronto,ON,M3N2K8,Canada,43.771431,-79.519798,M3N,2K8
28 Fishleigh Dr, Toronto,ON,M1N1G9,Canada,43.700665,-79.250643,M1N,1G9
4673 Jane St #318, Toronto,ON,M3N2L1,Canada,43.770357,-79.520128,M3N,2L1
850 Danforth Rd, Toronto,ON,M1K1H5,Canada,43.726901,-79.253184,M1K,1H5
303 Maria St, Toronto,ON,M6P1W6,Canada,43.666219,-79.482138,M6P,1W6
631 Richmond St W, Toronto,ON,M6J1C2,Canada,43.646133,-79.404423,M6J,1C2
90 Broadview Ave #526, Toronto,ON,M4M0A7,Canada,43.65794,-79.349786,M4M,0A7
18 Burnt Log Cres, Toronto,ON,M9C2J8,Canada,43.633137,-79.58094,M9C,2J8
10 De Boers Dr #905, Toronto,ON,M3J0L6,Canada,43.752055,-79.464264,M3J,0L6
825 Adelaide St W, Toronto,ON,M6J1B5,Canada,43.643556,-79.410684,M6J,1B5
15 Edenbrook Hl, Toronto,ON,M9A3Z7,Canada,43.671624,-79.524004,M9A,3Z7
10 Deerlick Ct #518, Toronto,ON,M3A0A7,Canada,43.759433,-79.332085,M3A,0A7
11 Wellesley St W #4711, Toronto,ON,M4Y0G4,Canada,43.664526,-79.385583,M4Y,0G4
37 Saint Andrews Gdns, Toronto,ON,M4W2C9,Canada,43.685552,-79.374772,M4W,2C9
8 Colborne St #PENTHOUSE 2701, Toronto,ON,M5E1E1,Canada,43.648745,-79.377021,M5E,1E1
102 Pennyhill Dr, Toronto,ON,M1B4K7,Canada,43.813775,-79.216708,M1B,4K7
333 Brighton Ave, Toronto,ON,M3H4G4,Canada,43.756128,-79.462889,M3H,4G4
20 Blue Jays Way #319, Toronto,ON,M5V3W6,Canada,43.643797,-79.391668,M5V,3W6
2737 Keele St #821, Toronto,ON,M3M2E9,Canada,43.725799,-79.480604,M3M,2E9
24 Masseygrove Cres, Toronto,ON,M9V3C9,Canada,43.736326,-79.584228,M9V,3C9
1 De Vere Gdns, Toronto,ON,M5M3E4,Canada,43.736381,-79.407697,M5M,3E4
36 Astley Ave, Toronto,ON,M4W3B4,Canada,43.688906,-79.369921,M4W,3B4
222 The Esplanade #713, Toronto,ON,M5A4M8,Canada,43.649611,-79.365545,M5A,4M8
629 King St W #1307, Toronto,ON,M5V0G9,Canada,43.643972,-79.401585,M5V,0G9
228 Westview Blvd, Toronto,ON,M4B3J5,Canada,43.71338,-79.305617,M4B,3J5
357 King St W #1601, Toronto,ON,M5V0S7,Canada,43.645835,-79.392529,M5V,0S7
55 Hambly Ave, Toronto,ON,M4E2R5,Canada,43.673307,-79.297707,M4E,2R5
74 Connolly St, Toronto,ON,M6N5G3,Canada,43.671959,-79.455369,M6N,5G3
17A S Woodrow Blvd, Toronto,ON,M1N3L5,Canada,43.699423,-79.260028,M1N,3L5
23 Dewbourne Ave, Toronto,ON,M5P1Z5,Canada,43.699157,-79.423254,M5P,1Z5
271 Victoria Park Ave, Toronto,ON,M4E3S6,Canada,43.683316,-79.284726,M4E,3S6
2A Battenberg Ave, Toronto,ON,M4L1J8,Canada,43.667336,-79.316773,M4L,1J8
235 Sherway Gardens Rd #2010, Toronto,ON,M9C0A2,Canada,43.609301,-79.559016,M9C,0A2
14 Pinegrove Ave, Toronto,ON,M1N2G4,Canada,43.698491,-79.263913,M1N,2G4
180 Patricia Ave, Toronto,ON,M2M1J5,Canada,43.788611,-79.426393,M2M,1J5
1815 Yonge St #1801, Toronto,ON,M4T2A4,Canada,43.695918,-79.395842,M4T,2A4
740 Eglinton Ave W #301, Toronto,ON,M5N1C4,Canada,43.702079,-79.421814,M5N,1C4
114 Saskatoon Dr, Toronto,ON,M9P2G4,Canada,43.69309,-79.544397,M9P,2G4
353 Driftwood Ave #2, Toronto,ON,M3N2P2,Canada,43.768082,-79.512841,M3N,2P2
181 Dundas St E UNIT 3811, Toronto,ON,M5A0N5,Canada,43.656969,-79.374122,M5A,0N5
59 Annie Craig Dr #3604, Toronto,ON,M8V0C4,Canada,43.624949,-79.478244,M8V,0C4
391 Beechgrove Dr #79, Scarborough,ON,M1E2R1,Canada,43.776785,-79.172058,M1E,2R1
77 Magellan Dr, Toronto,ON,M3L1T3,Canada,43.736555,-79.508517,M3L,1T3
70 Byng Ave #6, Toronto,ON,M2N7L9,Canada,43.777634,-79.411524,M2N,7L9
585 Bloor St E #4218, Toronto,ON,M4W0B3,Canada,43.671653,-79.371638,M4W,0B3
97 Lawton Blvd #704, Toronto,ON,M4V1Z6,Canada,43.693514,-79.396234,M4V,1Z6
44 Waverley Rd, Toronto,ON,M4L3T1,Canada,43.667585,-79.300136,M4L,3T1
812 Duplex Ave, Toronto,ON,M4R1W7,Canada,43.718239,-79.403956,M4R,1W7
127 Boardwalk Dr, Toronto,ON,M4L3X9,Canada,43.666435,-79.305807,M4L,3X9
215 Strathallan Wood, Toronto,ON,M5N1T5,Canada,43.712754,-79.421209,M5N,1T5
63 Hammersmith Ave, Toronto,ON,M4E2W3,Canada,43.670396,-79.293932,M4E,2W3
990 Dovercourt Rd, Toronto,ON,M6H2X5,Canada,43.666907,-79.431852,M6H,2X5
47 Stephen Dr, Toronto,ON,M8Y3M8,Canada,43.632836,-79.485005,M8Y,3M8
415 Wellesley St E, Toronto,ON,M4X1H5,Canada,43.668911,-79.364947,M4X,1H5
200 Cumberland St #3802, Toronto,ON,M5R0B7,Canada,43.669867,-79.394244,M5R,0B7
30 Forge Dr, Toronto,ON,M3N2R3,Canada,43.759536,-79.513985,M3N,2R3
4 Tredvalley Grve, Toronto,ON,M1C3J4,Canada,43.776477,-79.148234,M1C,3J4
83 Lillian St #15, Toronto,ON,M4S2H7,Canada,43.706583,-79.393516,M4S,2H7
168 Pinewood Ave, Toronto,ON,M6C2V5,Canada,43.688172,-79.427079,M6C,2V5
101 Charles St E #4202, Toronto,ON,M4Y0A9,Canada,43.669643,-79.380555,M4Y,0A9
127 Bellwoods Ave, Toronto,ON,M6J2P6,Canada,43.64966,-79.41204,M6J,2P6
9 Bogert Ave #2801, Toronto,ON,M2N0H3,Canada,43.760385,-79.411435,M2N,0H3
65 Mutual St #3004, Toronto,ON,M5H2A9,Canada,43.655802,-79.374984,M5H,2A9
195 Redpath Ave #3307, Toronto,ON,M4P0E4,Canada,43.7101,-79.393425,M4P,0E4
28 Rosebank Dr #1009, Toronto,ON,M1B5Z1,Canada,43.792518,-79.235348,M1B,5Z1
36 Lisgar St #708W, Toronto,ON,M6J0C7,Canada,43.641739,-79.423316,M6J,0C7
5444 Yonge St #108, Toronto,ON,M2N6J4,Canada,43.776373,-79.415758,M2N,6J4
2053 Gerrard St E, Toronto,ON,M4E2B4,Canada,43.68208,-79.307469,M4E,2B4
64 Marion St, Toronto,ON,M6R1E7,Canada,43.642017,-79.443304,M6R,1E7
248 Garden Ave, Toronto,ON,M6R1J3,Canada,43.6432,-79.450769,M6R,1J3
6 Croft St, Toronto,ON,M5S2N8,Canada,43.657306,-79.406124,M5S,2N8
236 Browning Ave, Toronto,ON,M4K1X2,Canada,43.683222,-79.34711,M4K,1X2
6 Creekwood Dr, Toronto,ON,M1E4L7,Canada,43.785981,-79.215279,M1E,4L7
830 Lawrence Ave W #2207, Toronto,ON,M6A0B6,Canada,43.71445,-79.454208,M6A,0B6
48 Coe Hill Dr, Toronto,ON,M6S3C8,Canada,43.639264,-79.469882,M6S,3C8
68 Abell St UNIT 1001, Toronto,ON,M6J0B1,Canada,43.642434,-79.424538,M6J,0B1
301 Prudential Dr #1701, Toronto,ON,M1P4V3,Canada,43.749918,-79.268628,M1P,4V3
2901 Kipling Ave #907, Toronto,ON,M9V5E5,Canada,43.758185,-79.588513,M9V,5E5
341 Military Trl #20, Toronto,ON,M1E4E4,Canada,43.786061,-79.212348,M1E,4E4
29 Glen Stewart Ave, Toronto,ON,M4E1P6,Canada,43.678355,-79.295885,M4E,1P6
364 The East Mall #243, Toronto,ON,M9B6C5,Canada,43.642465,-79.559589,M9B,6C5
309 Ranee Ave, Toronto,ON,M6A1N9,Canada,43.722361,-79.451974,M6A,1N9
2737 Keele St #402, Toronto,ON,M3M2E9,Canada,43.725799,-79.480604,M3M,2E9
403 Church St #2413, Toronto,ON,M4Y0C9,Canada,43.662103,-79.379236,M4Y,0C9
76 Arjay Cres, Toronto,ON,M2L1C7,Canada,43.739075,-79.384916,M2L,1C7
147 Cameron Ave, Toronto,ON,M6M1R5,Canada,43.689775,-79.471368,M6M,1R5
78 Cameron Ave, Toronto,ON,M2N1E2,Canada,43.75622,-79.415729,M2N,1E2
28 Freeland St #4404, Toronto,ON,M5E1L7,Canada,43.643622,-79.373959,M5E,1L7
663 Windermere Ave, Toronto,ON,M6S3M2,Canada,43.656998,-79.48273,M6S,3M2
27 Shaftesbury Ave, Toronto,ON,M4T3B3,Canada,43.68211,-79.390162,M4T,3B3
1950 Kennedy Rd #706, Toronto,ON,M1P4S9,Canada,43.767632,-79.282853,M1P,4S9
32 Ava Rd, Toronto,ON,M5P1Y4,Canada,43.697906,-79.421226,M5P,1Y4
5418 Yonge St #901, Toronto,ON,M2N6X4,Canada,43.775522,-79.415248,M2N,6X4
125 Peter St #1301, Toronto,ON,M5V0M2,Canada,43.648321,-79.392887,M5V,0M2
7 Merredin Pl, Toronto,ON,M3B1S7,Canada,43.748513,-79.35726,M3B,1S7
564 Pharmacy Ave, Toronto,ON,M1L3G9,Canada,43.707103,-79.289985,M1L,3G9
14 Kildonan Dr, Toronto,ON,M1N3B5,Canada,43.687027,-79.266351,M1N,3B5
180 Markham Rd SUITE 707, Toronto,ON,M1M2Z9,Canada,43.652934,-79.407872,M1M,2Z9
27 Glen Elm Ave, Toronto,ON,M4T1T9,Canada,43.691389,-79.393694,M4T,1T9
20 Cedar Ave E, Toronto,ON,M4E1K2,Canada,43.674795,-79.287507,M4E,1K2
4 Daysland Rd, Toronto,ON,M9W4A9,Canada,43.718979,-79.56295,M9W,4A9
59 Arundel Ave, Toronto,ON,M4K3A3,Canada,43.679799,-79.351218,M4K,3A3
390 Hopewell Ave #130, Toronto,ON,M6E2S2,Canada,43.700641,-79.444449,M6E,2S2
21 Mayberry Rd, Toronto,ON,M3N2A5,Canada,43.741518,-79.518308,M3N,2A5
30 Fieldway Rd #98, Toronto,ON,M8Z0E3,Canada,43.642292,-79.528276,M8Z,0E3
1 Hawthorn Ave, Toronto,ON,M4W2Z1,Canada,43.675042,-79.36985,M4W,2Z1
15 Sewells Rd #410, Toronto,ON,M1B3V7,Canada,43.806694,-79.217112,M1B,3V7
5 Saint Joseph St #4309, Toronto,ON,M4Y0B6,Canada,43.665776,-79.385633,M4Y,0B6
4 Burleigh Heights Dr, Toronto,ON,M2K1Y7,Canada,43.779657,-79.390466,M2K,1Y7
580 Christie St #807, Toronto,ON,M6G3E3,Canada,43.679182,-79.425403,M6G,3E3
217 Richview Ave, Toronto,ON,M5P3G2,Canada,43.695007,-79.421605,M5P,3G2
10 Eva Rd #601, Toronto,ON,M9C0B3,Canada,43.641355,-79.562771,M9C,0B3
80 Old Forest Hill Rd, Toronto,ON,M5P2R5,Canada,43.698893,-79.417749,M5P,2R5
34 Green Valley Rd, Toronto,ON,M2P1A6,Canada,43.739774,-79.388924,M2P,1A6
56 Rockcliffe Blvd, Toronto,ON,M6N4R5,Canada,43.679689,-79.4908,M6N,4R5
48 Crescent Rd, Toronto,ON,M4W1S9,Canada,43.677803,-79.387068,M4W,1S9
816 Lansdowne Ave #216, Toronto,ON,M6H4K6,Canada,43.665661,-79.447378,M6H,4K6
91 Fulwell Cres, Toronto,ON,M3J1Y4,Canada,43.750867,-79.50285,M3J,1Y4
225 Christie St, Toronto,ON,M6G3B5,Canada,43.669398,-79.420453,M6G,3B5
127 Joicey Blvd, Toronto,ON,M2M2T8,Canada,43.736904,-79.416255,M2M,2T8
104 3rd St, Toronto,ON,M8V2X9,Canada,43.60352,-79.501782,M8V,2X9
12 Lark St, Toronto,ON,M4L3M6,Canada,43.668319,-79.310823,M4L,3M6
490 Caledonia Rd, Toronto,ON,M6E4V2,Canada,43.689821,-79.461148,M6E,4V2
101 Russell Hill Rd, Toronto,ON,M4V2S9,Canada,43.68178,-79.404985,M4V,2S9
47 Cherrylawn Ave, Toronto,ON,M9L2B3,Canada,43.752537,-79.559192,M9L,2B3
23 Cavell Ave, Toronto,ON,M4K1L5,Canada,43.676192,-79.344974,M4K,1L5
11 Shorncliffe Ave, Toronto,ON,M4V1S9,Canada,43.68559,-79.410873,M4V,1S9
211 Woodycrest Ave, Toronto,ON,M4J3C4,Canada,43.687915,-79.344644,M4J,3C4
1 Silvergrove Rd, Toronto,ON,M2L2N5,Canada,43.763519,-79.374045,M2L,2N5
43 Edenvale Cres, Toronto,ON,M9A4A5,Canada,43.680741,-79.52895,M9A,4A5
3 Everson Dr #637, Toronto,ON,M2N7C2,Canada,43.756938,-79.406496,M2N,7C2
23 Strathdee Dr, Toronto,ON,M9R1A6,Canada,43.681424,-79.544171,M9R,1A6
861 Sheppard Ave W #61,Toronto,ON,M3H0E9,Canada,43.752102,-79.453675,M3H,0E9
6 Lankin Blvd, Toronto,ON,M4J4W8,Canada,43.692293,-79.328633,M4J,4W8
161 Roehampton Ave #PENTHOUSE 05, Toronto,ON,M4P0C8,Canada,43.70876,-79.393794,M4P,0C8
4689 Jane St #503, Toronto,ON,M3N2T6,Canada,43.770863,-79.520254,M3N,2T6
57 Saint Nicholas St, Toronto,ON,M4Y1W6,Canada,43.667191,-79.386232,M4Y,1W6
173 Dunvegan Rd, Toronto,ON,M5P2P1,Canada,43.696803,-79.408729,M5P,2P1
65 Harbour Sq #3306, Toronto,ON,M5J2L4,Canada,43.640082,-79.378599,M5J,2L4
353 Driftwood Ave #7, Toronto,ON,M3N2P2,Canada,43.768082,-79.512841,M3N,2P2
1195 The Queensway E #102, Toronto,ON,M8Z0H1,Canada,43.621626,-79.522481,M8Z,0H1
66 Cliff St, Toronto,ON,M6N4M1,Canada,43.679993,-79.485042,M6N,4M1
5 Pheasant Ln, Toronto,ON,M9A1T1,Canada,43.662472,-79.534898,M9A,1T1
73 Pendrith St, Toronto,ON,M6G1R8,Canada,43.666638,-79.422778,M6G,1R8
25 Boustead Ave, Toronto,ON,M6R1Y7,Canada,43.653133,-79.452791,M6R,1Y7
15 Lenthall Ave, Toronto,ON,M1B2C7,Canada,43.797531,-79.238536,M1B,2C7
127 Queen St E #406, Toronto,ON,M5C1S3,Canada,43.653471,-79.373755,M5C,1S3
295 Adelaide St W #2303, Toronto,ON,M5V0L4,Canada,43.647594,-79.390757,M5V,0L4
5791 Yonge St #PENTHOUSE 205, Toronto,ON,M2M0A8,Canada,43.783997,-79.41604,M2M,0A8
130 Shuter St, Toronto,ON,M5A1V8,Canada,43.655956,-79.371864,M5A,1V8
408 Ontario St, Toronto,ON,M5A2W1,Canada,43.662083,-79.370042,M5A,2W1
1785 Eglinton Ave E #203, Toronto,ON,M4A2Y6,Canada,43.724765,-79.307151,M4A,2Y6
1994 Dufferin St, Toronto,ON,M6E3R2,Canada,43.684965,-79.446149,M6E,3R2
37 Drewry Ave UNIT 9, Toronto,ON,M2M0B4,Canada,43.786348,-79.419345,M2M,0B4
60 Alexandra Wood, Toronto,ON,M5N2S5,Canada,43.71411,-79.425653,M5N,2S5
95 Vine Ave, Toronto,ON,M6P1V8,Canada,43.66645,-79.468112,M6P,1V8
33 Sheppard Ave E #1800, Toronto,ON,M2N7K1,Canada,43.761229,-79.408934,M2N,7K1
82 York Rd, Toronto,ON,M2L1H8,Canada,43.746179,-79.384607,M2L,1H8
2152 Bayview Ave, Toronto,ON,M4N0A4,Canada,43.723305,-79.379711,M4N,0A4
585 Bloor St E #521, Toronto,ON,M4W0B3,Canada,43.671653,-79.371638,M4W,0B3
60 Manorglen Cres, Toronto,ON,M1S1W4,Canada,43.780125,-79.271026,M1S,1W4
212 Cocksfield Ave, Toronto,ON,M3H3T7,Canada,43.753818,-79.454186,M3H,3T7
99 Broadway Ave #2902, Toronto,ON,M4P0E3,Canada,43.710514,-79.393306,M4P,0E3
5 Pembury Ave, Toronto,ON,M4N3K4,Canada,43.725688,-79.381034,M4N,3K4
155 Grenadier Rd, Toronto,ON,M6R1R5,Canada,43.648363,-79.45151,M6R,1R5
50 Yorkville Ave #5202, Toronto,ON,M4W0A3,Canada,43.671667,-79.389667,M4W,0A3
108 Sandringham Dr, Toronto,ON,M3H1C9,Canada,43.746887,-79.420259,M3H,1C9
208 Queens Quay W #511, Toronto,ON,M5J2Y5,Canada,43.64009,-79.381499,M5J,2Y5
12 Madison Ave, Toronto,ON,M5R2S1,Canada,43.667759,-79.403321,M5R,2S1
32 Roxborough St E, Toronto,ON,M4W1V6,Canada,43.678482,-79.387974,M4W,1V6
4 Allen Ave, Toronto,ON,M8V1R8,Canada,43.612936,-79.49066,M8V,1R8
58 Masseygrove Cres, Toronto,ON,M9V3C9,Canada,43.737847,-79.58269,M9V,3C9
22 Malamute Cres, Toronto,ON,M1T2C7,Canada,43.777993,-79.302685,M1T,2C7
9 Windermere Ave #TOWNHOUSE 94, Toronto,ON,M6S5A4,Canada,43.636805,-79.468161,M6S,5A4
62 Elm Ave, Toronto,ON,M4W1N7,Canada,43.67613,-79.375547,M4W,1N7
271 Major St, Toronto,ON,M5S2L5,Canada,43.665445,-79.405732,M5S,2L5
194 Clendenan Ave, Toronto,ON,M6P2X2,Canada,43.656977,-79.471809,M6P,2X2
297 Oriole Pkwy, Toronto,ON,M5P2H6,Canada,43.70077,-79.404051,M5P,2H6
1244 College St, Toronto,ON,M6H1C2,Canada,43.651641,-79.438166,M6H,1C2
330 Dixon Rd #2705, Toronto,ON,M9R1S9,Canada,43.695777,-79.553152,M9R,1S9
11 Livonia Pl #18, Toronto,ON,M1E4W5,Canada,43.785465,-79.205888,M1E,4W5
35 Balmuto St #2101, Toronto,ON,M4Y0A3,Canada,43.669472,-79.387488,M4Y,0A3
335 Mill Rd #703, Toronto,ON,M9C1Y6,Canada,43.639973,-79.584581,M9C,1Y6
66 Loradeen Cres, Toronto,ON,M1B1T8,Canada,43.81339,-79.232371,M1B,1T8
44 Branstone Rd, Toronto,ON,M6E4E4,Canada,43.691621,-79.453661,M6E,4E4
42 Mossbank Dr, Toronto,ON,M1G2C3,Canada,43.765598,-79.212505,M1G,2C3
2 1st Ave, Toronto,ON,M4M1W8,Canada,43.664898,-79.351918,M4M,1W8
16 Muskoka Ave, Toronto,ON,M8W1H3,Canada,43.59184,-79.532076,M8W,1H3
106 Varna Dr #TOWNHOUSE 10, Toronto,ON,M6A0C8,Canada,43.723122,-79.445784,M6A,0C8
575 Avenue Rd #704, Toronto,ON,M4V2K2,Canada,43.688637,-79.401726,M4V,2K2
8 Swansdown Dr, Toronto,ON,M2L2N1,Canada,43.759947,-79.373036,M2L,2N1
15 Holmes Ave #2405, Toronto,ON,M2N4L8,Canada,43.777812,-79.413863,M2N,4L8
10 Avery Ave, Toronto,ON,M9C1K2,Canada,43.633967,-79.564557,M9C,1K2
35 Emerald Cres, Toronto,ON,M8V2B3,Canada,43.59614,-79.502746,M8V,2B3
3151 Bridletowne Cir #1901, Toronto,ON,M1W2T1,Canada,43.797559,-79.319846,M1W,2T1
590 Briar Hill Ave, Toronto,ON,M5N1M9,Canada,43.709509,-79.420538,M5N,1M9
3 Thornhill Ave, Toronto,ON,M6S4C3,Canada,43.65734,-79.488801,M6S,4C3
17 Lesmount Ave, Toronto,ON,M4J3V5,Canada,43.690336,-79.339941,M4J,3V5
100 Mornelle Ct #1039, Toronto,ON,M1E4X2,Canada,43.78722,-79.194677,M1E,4X2
70 Distillery Ln #1508, Toronto,ON,M5A0E3,Canada,43.650118,-79.357935,M5A,0E3
91 Bedford Rd, Toronto,ON,M5R2K4,Canada,43.671488,-79.398264,M5R,2K4
340 Dixon Rd #1508, Toronto,ON,M9R1T1,Canada,43.695609,-79.553852,M9R,1T1
237 McRoberts Ave, Toronto,ON,M6E4P3,Canada,43.681676,-79.455673,M6E,4P3
262 Saint Helens Ave #106, Toronto,ON,M6H4A4,Canada,43.656487,-79.443717,M6H,4A4
241 B Evelyn Ave, Toronto,ON,M6P2Z8,Canada,43.662514,-79.475521,M6P,2Z8
32 Windsor Rd, Toronto,ON,M9R3G4,Canada,43.699963,-79.556916,M9R,3G4
62 Martin Grove Rd, Toronto,ON,M9B4K4,Canada,43.643724,-79.547155,M9B,4K4
44 Standish Ave, Toronto,ON,M4W3B1,Canada,43.688505,-79.371183,M4W,3B1
25 Ritchie Ave #PENTHOUSE 510, Toronto,ON,M6R2J6,Canada,43.652358,-79.450119,M6R,2J6
80 John St #1603, Toronto,ON,M5V3X4,Canada,43.646874,-79.390188,M5V,3X4
39 Standish Ave, Toronto,ON,M4W3B2,Canada,43.6885,-79.370482,M4W,3B2
77 Glenmore Rd, Toronto,ON,M4L3M2,Canada,43.678005,-79.310652,M4L,3M2
30 Northland Ave, Toronto,ON,M6N2C6,Canada,43.678734,-79.47552,M6N,2C6
17 Edilou Dr, Toronto,ON,M8W4B1,Canada,43.605996,-79.531532,M8W,4B1
2130 Weston Rd #304, Toronto,ON,M9N3R9,Canada,43.702433,-79.524659,M9N,3R9
186 Phyllis Ave, Toronto,ON,M1M1Y8,Canada,43.730854,-79.230523,M1M,1Y8
132 Grey Rd, Toronto,ON,M5M4G1,Canada,43.731779,-79.423122,M5M,4G1
4645 Jane St #720, Toronto,ON,M3N2K9,Canada,43.769446,-79.519808,M3N,2K9
100 Glenvale Blvd, Toronto,ON,M4G2V9,Canada,43.717745,-79.371309,M4G,2V9
319 Betty Ann Dr, Toronto,ON,M2R1B4,Canada,43.764741,-79.436434,M2R,1B4
335 Lonsdale Rd #406, Toronto,ON,M5P1R4,Canada,43.68827,-79.413549,M5P,1R4
37 Marjory Ave, Toronto,ON,M4M2Y2,Canada,43.667421,-79.336653,M4M,2Y2
10 Livonia Pl #149, Toronto,ON,M1E4W6,Canada,43.785922,-79.206031,M1E,4W6
4645 Jane St #818, Toronto,ON,M3N2K9,Canada,43.769446,-79.519808,M3N,2K9
42 Heathview Ave, Toronto,ON,M2K2C1,Canada,43.783169,-79.385634,M2K,2C1
561 Arlington Ave, Toronto,ON,M6C3A6,Canada,43.694701,-79.434216,M6C,3A6
2088 Lawrence Ave W #603, Toronto,ON,M9N3Z9,Canada,43.699951,-79.518563,M9N,3Z9
210 Gowan Ave, Toronto,ON,M4J2K6,Canada,43.689278,-79.345064,M4J,2K6
52 Sproat Ave, Toronto,ON,M4M1W4,Canada,43.668518,-79.33323,M4M,1W4
311 Bay St #4801, Toronto,ON,M5H4G5,Canada,43.649756,-79.380323,M5H,4G5
35 Brian Peck Cres #807, Toronto,ON,M4G0A5,Canada,43.714593,-79.354388,M4G,0A5
40 Thorny Vine Way, Toronto,ON,M2J4J2,Canada,43.785524,-79.368264,M2J,4J2
166 Gordon Rd, Toronto,ON,M2P1E8,Canada,43.749409,-79.388568,M2P,1E8
365 Beech Ave #PENTHOUSE 1, Toronto,ON,M4E0C2,Canada,43.680037,-79.29045,M4E,0C2
926 Willowdale Ave, Toronto,ON,M2M3C1,Canada,43.785882,-79.409553,M2M,3C1
2 Josephine Rd, Toronto,ON,M3H3G4,Canada,43.743761,-79.447819,M3H,3G4
39B Oriole Rd, Toronto,ON,M4V2E6,Canada,43.688419,-79.40019,M4V,2E6
50 Grandravine Dr #8, Toronto,ON,M3J1B1,Canada,43.753029,-79.489411,M3J,1B1
170 Strathallan Blvd, Toronto,ON,M5N1T1,Canada,43.714008,-79.417412,M5N,1T1
85 Bloor St E #1709, Toronto,ON,M4W3Y1,Canada,43.670479,-79.384571,M4W,3Y1
29 Checkendon Dr, Toronto,ON,M9W2Y8,Canada,43.732732,-79.57325,M9W,2Y8
418 Davenport Rd, Toronto,ON,M4V1B5,Canada,43.678098,-79.406458,M4V,1B5
65 Scadding Ave #422, Toronto,ON,M5A4L1,Canada,43.648874,-79.365216,M5A,4L1
524 Scarborough Golf Club Rd, Toronto,ON,M1G1H2,Canada,43.760083,-79.215919,M1G,1H2
42 Old Bridle Path, Toronto,ON,M4T1A7,Canada,43.687267,-79.376363,M4T,1A7
368 Markham St, Toronto,ON,M6G2K9,Canada,43.658121,-79.410024,M6G,2K9
24A Massey St, Toronto,ON,M6J3T7,Canada,43.642716,-79.413217,M6J,3T7
428 Connaught Ave, Toronto,ON,M2R2M3,Canada,43.784968,-79.43885,M2R,2M3
650 Queens Quay W #921, Toronto,ON,M5V3N2,Canada,43.635702,-79.398839,M5V,3N2
277 Indian Rd, Toronto,ON,M6R2X4,Canada,43.652109,-79.455322,M6R,2X4
61 Arjay Cres, Toronto,ON,M2L1C6,Canada,43.73848,-79.383368,M2L,1C6
113 Burrows Hall Blvd, Toronto,ON,M1B1Z7,Canada,43.791652,-79.231091,M1B,1Z7
21 Kirk Bradden Rd W, Toronto,ON,M8Y2G1,Canada,43.638302,-79.502855,M8Y,2G1
272 Rumsey Rd, Toronto,ON,M4G1P9,Canada,43.712369,-79.369841,M4G,1P9
115 10th St, Toronto,ON,M8V3E9,Canada,43.599655,-79.508115,M8V,3E9
200 AC Merton St, Toronto,ON,M4S1A1,Canada,43.697552,-79.390292,M4S,1A1
700 King St W UNIT 604, Toronto,ON,M5V2Y6,Canada,43.644124,-79.403262,M5V,2Y6
91 Valecrest Dr, Toronto,ON,M9A4P5,Canada,43.675971,-79.520516,M9A,4P5
135 Holborne Ave, Toronto,ON,M4C2R5,Canada,43.69443,-79.318652,M4C,2R5
1 Bolingbroke Rd, Toronto,ON,M6B3L5,Canada,43.712749,-79.448179,M6B,3L5
1285 Dupont St #2301, Toronto,ON,M6H0E3,Canada,43.667732,-79.442661,M6H,0E3
491 Jane St, Toronto,ON,M6S4A1,Canada,43.661375,-79.489035,M6S,4A1
152 Stanley Ave, Toronto,ON,M8V1N9,Canada,43.614753,-79.496794,M8V,1N9
5795 Yonge St UNIT 611, Toronto,ON,M2M4J3,Canada,43.784366,-79.415164,M2M,4J3
75 Queens Wharf Rd #3901, Toronto,ON,M5V0J8,Canada,43.63836,-79.398657,M5V,0J8
21 Tinbury Pl, Toronto,ON,M1B1J7,Canada,43.793992,-79.225331,M1B,1J7
4 Flatwoods Dr, Toronto,ON,M1V4H4,Canada,43.826499,-79.285113,M1V,4H4
1438A Dufferin St, Toronto,ON,M6H3L1,Canada,43.67111,-79.440411,M6H,3L1
38 Smithwood Dr, Toronto,ON,M9B4R9,Canada,43.643535,-79.552893,M9B,4R9
88 Willowridge Rd, Toronto,ON,M9R3Z4,Canada,43.678549,-79.57346,M9R,3Z4
27 Burkwood Cres, Toronto,ON,M1B1N8,Canada,43.802005,-79.213927,M1B,1N8
63 Cleveland St, Toronto,ON,M4S2W3,Canada,43.701838,-79.37765,M4S,2W3
52 Rosedale Rd, Toronto,ON,M4W2P6,Canada,43.676621,-79.384891,M4W,2P6
62 Kay Dr, Toronto,ON,M9V4X7,Canada,43.757867,-79.592178,M9V,4X7
155 Dalhousie St #1054, Toronto,ON,M5B2P7,Canada,43.657615,-79.376789,M5B,2P7
5949 Yonge St #803, Toronto,ON,M2M3V8,Canada,43.787691,-79.416986,M2M,3V8
38 Ravensbourne Cres, Toronto,ON,M9A2A8,Canada,43.67637,-79.539166,M9A,2A8
9 Greenview Ave, Toronto,ON,M2M4M7,Canada,43.779808,-79.418417,M2M,4M7
68 Yorkville Ave #304, Toronto,ON,M5R3V7,Canada,43.671482,-79.390514,M5R,3V7
375 King St W #2302, Toronto,ON,M5V1K5,Canada,43.6457,-79.393154,M5V,1K5
274 Carlton St, Toronto,ON,M5A2L5,Canada,43.664973,-79.366388,M5A,2L5
70 Pynford Cres, Toronto,ON,M3A1W8,Canada,43.758039,-79.318002,M3A,1W8
75 The Donway W #805, Toronto,ON,M3C2E9,Canada,43.732752,-79.345652,M3C,2E9
80 Crescent Rd UNIT 300, Toronto,ON,M4W1T5,Canada,43.67805,-79.384721,M4W,1T5
4 Bowman St, Toronto,ON,M4X1T9,Canada,43.665666,-79.364223,M4X,1T9
53 Lynnford Dr, Toronto,ON,M9B1H8,Canada,43.633447,-79.553653,M9B,1H8
185 Dawlish Ave, Toronto,ON,M4N1H6,Canada,43.722026,-79.390921,M4N,1H6
40 Exmoor Dr, Toronto,ON,M8W1R5,Canada,43.592477,-79.543761,M8W,1R5
131 Brickworks Ln #BL131, Toronto,ON,M6N5H8,Canada,43.67497,-79.468291,M6N,5H8
195 Upper Canada Dr, Toronto,ON,M2P1T2,Canada,43.759994,-79.394588,M2P,1T2
36 Wilson Park Rd, Toronto,ON,M6K3B5,Canada,43.637544,-79.44199,M6K,3B5
197 S Woodrow Blvd, Toronto,ON,M1N3M1,Canada,43.703661,-79.261775,M1N,3M1
391 Wellesley St E, Toronto,ON,M4X1H5,Canada,43.668839,-79.365713,M4X,1H5
488 University Ave #2507, Toronto,ON,M5G0C1,Canada,43.655154,-79.38905,M5G,0C1
76 Dalegrove Cres, Toronto,ON,M9B6A9,Canada,43.672876,-79.566173,M9B,6A9
67 Hillholm Rd, Toronto,ON,M5P1M4,Canada,43.697374,-79.411721,M5P,1M4
26 Crimson Millway, Toronto,ON,M2L1T6,Canada,43.752006,-79.382613,M2L,1T6
83 Bayview Rdg, Toronto,ON,M2L1E3,Canada,43.740734,-79.385072,M2L,1E3
25 Laidlaw St #516, Toronto,ON,M6K1X3,Canada,43.640554,-79.426294,M6K,1X3
70 Oriole Rd, Toronto,ON,M4V2G1,Canada,43.689811,-79.401305,M4V,2G1
59 Annie Craig Dr #1003, Toronto,ON,M8V0C4,Canada,43.624949,-79.478244,M8V,0C4
16 Brookers Ln #2207, Toronto,ON,M8V0A5,Canada,43.62693,-79.47851,M8V,0A5
95 Gaydon Ave, Toronto,ON,M9M1G8,Canada,43.721696,-79.530577,M9M,1G8
77 McMurrich St #308, Toronto,ON,M5R3V3,Canada,43.674812,-79.39012,M5R,3V3
37 Vine Ave, Toronto,ON,M6P1V6,Canada,43.66642,-79.466366,M6P,1V6
25 Janus Ct, Toronto,ON,M2H1S3,Canada,43.807397,-79.369761,M2H,1S3
19 Hedgewood Rd, Toronto,ON,M2L1L4,Canada,43.743342,-79.397858,M2L,1L4
500 Donlands Ave, Toronto,ON,M4J3S7,Canada,43.696155,-79.346168,M4J,3S7
435 Meadowvale Rd, Toronto,ON,M1C1S6,Canada,43.78853,-79.161669,M1C,1S6
133 Cordella Ave, Toronto,ON,M6N2K1,Canada,43.679261,-79.4857,M6N,2K1
97 Post Rd, Toronto,ON,M3B1J3,Canada,43.738724,-79.367822,M3B,1J3
7 Wortham Dr, Toronto,ON,M1G1W5,Canada,43.762929,-79.224939,M1G,1W5
25 Lower Simcoe St #318, Toronto,ON,M5J3A1,Canada,43.641411,-79.383308,M5J,3A1
503 Beecroft Rd #905, Toronto,ON,M2N0A2,Canada,43.778232,-79.417772,M2N,0A2
52 Forest Manor Rd #521, Toronto,ON,M2J0E2,Canada,43.772384,-79.344395,M2J,0E2
30 Herons Hill Way #506, Toronto,ON,M2J0A7,Canada,43.774938,-79.335458,M2J,0A7
25 Bamburgh Cir #929, Toronto,ON,M1W3W2,Canada,43.815497,-79.325582,M1W,3W2
13 Riverlea Rd, Toronto,ON,M9P2B1,Canada,43.699382,-79.522934,M9P,2B1
70 Annie Craig Dr #807, Toronto,ON,M8V0G2,Canada,43.624739,-79.478962,M8V,0G2
50 Merchant Ln #105, Toronto,ON,M6P4J6,Canada,43.656875,-79.445518,M6P,4J6
2 Dailing Gate #19, Toronto,ON,M1B1Z8,Canada,43.791144,-79.229702,M1B,1Z8
61 Fulbert Cres, Toronto,ON,M1S1C5,Canada,43.790312,-79.287079,M1S,1C5
435 Middlefield Rd #56, Toronto,ON,M1S5W1,Canada,43.808839,-79.256579,M1S,5W1
10 Edgecliff Golfway #317, Toronto,ON,M3C3A3,Canada,43.719222,-79.326516,M3C,3A3
460 Adelaide St E #820, Toronto,ON,M5A0E7,Canada,43.652787,-79.3668,M5A,0E7
203 Medland St, Toronto,ON,M6P2N6,Canada,43.66441,-79.466577,M6P,2N6
21 Markbrook Ln #407, Toronto,ON,M9V5E4,Canada,43.758626,-79.587586,M9V,5E4
3 Marine Parade Dr #808, Toronto,ON,M8V3Z5,Canada,43.630233,-79.47622,M8V,3Z5
4 Park Vis #1006, Toronto,ON,M4B3M8,Canada,43.697968,-79.299349,M4B,3M8
135 Village Green Sq #418, Toronto,ON,M1S0G4,Canada,43.777872,-79.280751,M1S,0G4
61 Markbrook Ln #509, Toronto,ON,M9V5E7,Canada,43.759225,-79.585149,M9V,5E7
67 Lake Promenade, Toronto,ON,M8W1A2,Canada,43.590523,-79.522767,M8W,1A2
296 Torresdale Ave #17, Toronto,ON,M2R3N3,Canada,43.7896,-79.45287,M2R,3N3
262 Senlac Rd, Toronto,ON,M2R1P8,Canada,43.770953,-79.428126,M2R,1P8
32 Forest Manor Rd #416, Toronto,ON,M2J0C2,Canada,43.771726,-79.344794,M2J,0C2
423 Guildwood Pkwy, Toronto,ON,M1E1R3,Canada,43.750362,-79.185067,M1E,1R3
470 Front St W #1301, Toronto,ON,M5V0V6,Canada,43.642512,-79.395988,M5V,0V6
3237 Bayview Ave #510, Toronto,ON,M2K0G1,Canada,43.790112,-79.392793,M2K,0G1
25 Broadway Ave UNIT 1105, Toronto,ON,M4P1T7,Canada,43.709918,-79.395912,M4P,1T7
70 Thomas Mulholland Dr #8, Toronto,ON,M3K0A5,Canada,43.73587,-79.478063,M3K,0A5
15 B Medford Ave, Toronto,ON,M1L4G1,Canada,43.695692,-79.271575,M1L,4G1
106 Yardley Ave, Toronto,ON,M4B2B1,Canada,43.713354,-79.300924,M4B,2B1
129 McMahon Dr #TOWNHOUSE 03, Toronto,ON,M2K0C2,Canada,43.767654,-79.371136,M2K,0C2
73 Richmond St W #L02, Toronto,ON,M5H4E8,Canada,43.650733,-79.382286,M5H,4E8
213 Macdonell Ave, Toronto,ON,M6R2A4,Canada,43.64631,-79.439954,M6R,2A4
38 Dan Leckie Way #1607, Toronto,ON,M5V2V6,Canada,43.637492,-79.398104,M5V,2V6
11 Charlotte St #402, Toronto,ON,M5V0M6,Canada,43.646378,-79.39367,M5V,0M6
9 Michael Power Pl E #615, Toronto,ON,M9A0A5,Canada,43.644663,-79.529405,M9A,0A5
3220 Sheppard Ave E #1506, Toronto,ON,M1T3K3,Canada,43.777968,-79.312305,M1T,3K3
8 Tippett Rd #801, Toronto,ON,M3H0E7,Canada,43.732384,-79.446637,M3H,0E7
3 Everson Dr #528, Toronto,ON,M2N7C2,Canada,43.756938,-79.406496,M2N,7C2
121 Ford St #109, Toronto,ON,M6N3A1,Canada,43.673343,-79.462184,M6N,3A1
20 Tubman Ave #2307, Toronto,ON,M5A0M8,Canada,43.660593,-79.359349,M5A,0M8
19 Western Battery Rd #2310, Toronto,ON,M6K3N9,Canada,43.63957,-79.411329,M6K,3N9
111 3rd St, Toronto,ON,M8V2Y1,Canada,43.603827,-79.501393,M8V,2Y1
45 Strader Ave, Toronto,ON,M6C1R1,Canada,43.693481,-79.44039,M6C,1R1
224 Coronation Dr, Toronto,ON,M1E2J4,Canada,43.762523,-79.181993,M1E,2J4
8 Rosebank Dr #16H, Toronto,ON,M1B5Z3,Canada,43.791844,-79.237284,M1B,5Z3
28 Empress Ave #1916, Toronto,ON,M2N6Z7,Canada,43.769982,-79.411745,M2N,6Z7
319 Laird Dr, Toronto,ON,M4G3X7,Canada,43.716006,-79.365486,M4G,3X7
128 Hazelton Ave #801, Toronto,ON,M5R2E5,Canada,43.674903,-79.39488,M5R,2E5
18 Kipling Grove Ct, Toronto,ON,M9B0C6,Canada,43.662635,-79.551649,M9B,0C6
488 Roselawn Ave, Toronto,ON,M5N1J8,Canada,43.70797,-79.414299,M5N,1J8
3 Sutherland Ave, Toronto,ON,M4C1R8,Canada,43.691634,-79.289858,M4C,1R8
33 Edwin Ave, Toronto,ON,M6P3Z5,Canada,43.662925,-79.454429,M6P,3Z5
21 Fusilier Dr, Toronto,ON,M1L0C2,Canada,43.717232,-79.279496,M1L,0C2
121 Valley Stream Dr, Toronto,ON,M1V2A4,Canada,43.821396,-79.262866,M1V,2A4
