osm_id,code,fclass,name,geometry,Latitude,Longitude
238753589,5621,bus_stop,St George Street,POINT (-79.398618 43.663868),43.663868,-79.398618
238753600,5621,bus_stop,St George Street,POINT (-79.3982272 43.6642354),43.6642354,-79.3982272
295299568,5621,bus_stop,Macey Avenue,POINT (-79.2871828 43.6933757),43.6933757,-79.2871828
295299570,5621,bus_stop,St. Dunstan Drive,POINT (-79.2860185 43.6935726),43.6935726,-79.2860185
295299588,5621,bus_stop,Emmott Avenue,POINT (-79.2850743 43.6918685),43.6918685,-79.2850743
295299590,5621,bus_stop,Pharmacy Avenue,POINT (-79.283214 43.6924621),43.6924621,-79.283214
295299603,5621,bus_stop,,POINT (-79.2781085 43.6934069),43.6934069,-79.2781085
295299701,5621,bus_stop,Teesdale Place,POINT (-79.2855851 43.697122),43.697122,-79.2855851
295299704,5621,bus_stop,Teesdale Place,POINT (-79.2852162 43.6968574),43.6968574,-79.2852162
295308412,5621,bus_stop,Crescent Town,POINT (-79.2904327 43.6961419),43.6961419,-79.2904327
295308413,5621,bus_stop,Crescent Town,POINT (-79.2902721 43.6964318),43.6964318,-79.2902721
295308751,5621,bus_stop,Crescent Town Road,POINT (-79.2971387 43.6968566),43.6968566,-79.2971387
295308752,5621,bus_stop,,POINT (-79.2973466 43.6967488),43.6967488,-79.2973466
295308754,5621,bus_stop,Park Vista,POINT (-79.2972014 43.6980036),43.6980036,-79.2972014
295308766,5621,bus_stop,Park Vista,POINT (-79.2969322 43.6978923),43.6978923,-79.2969322
295319864,5621,bus_stop,Jarvis Street,POINT (-79.3803788 43.6717391),43.6717391,-79.3803788
295319867,5621,bus_stop,Jarvis Street,POINT (-79.380646 43.6714316),43.6714316,-79.380646
295319922,5621,bus_stop,Elm Avenue,POINT (-79.3799385 43.6744839),43.6744839,-79.3799385
295319951,5621,bus_stop,South Drive,POINT (-79.3826017 43.6785026),43.6785026,-79.3826017
295319954,5621,bus_stop,South Drive,POINT (-79.3827587 43.6783536),43.6783536,-79.3827587
295322461,5621,bus_stop,,POINT (-79.3777691 43.6774263),43.6774263,-79.3777691
295322966,5621,bus_stop,May Street,POINT (-79.3759217 43.6777189),43.6777189,-79.3759217
295324814,5621,bus_stop,South Dr at Glen Rd,POINT (-79.3749113 43.6776844),43.6776844,-79.3749113
295324816,5621,bus_stop,Glen Rd at South Dr,POINT (-79.3752387 43.6777268),43.6777268,-79.3752387
295324818,5621,bus_stop,Highland Ave at Glen Rd,POINT (-79.3739919 43.6809488),43.6809488,-79.3739919
295324820,5621,bus_stop,,POINT (-79.3729854 43.6829507),43.6829507,-79.3729854
295324933,5621,bus_stop,,POINT (-79.3725411 43.6853347),43.6853347,-79.3725411
295328459,5621,bus_stop,Summerhill Ave at Maclennan Ave,POINT (-79.3777482 43.6857304),43.6857304,-79.3777482
295329734,5621,bus_stop,,POINT (-79.3776337 43.6833081),43.6833081,-79.3776337
295330558,5621,bus_stop,,POINT (-79.3764514 43.6818433),43.6818433,-79.3764514
295331564,5621,bus_stop,South Dr at Glen Rd,POINT (-79.3756761 43.6776327),43.6776327,-79.3756761
295331565,5621,bus_stop,,POINT (-79.3752215 43.6761933),43.6761933,-79.3752215
295331566,5621,bus_stop,Elm Avenue,POINT (-79.3750389 43.6759497),43.6759497,-79.3750389
295331567,5621,bus_stop,,POINT (-79.3738223 43.6765612),43.6765612,-79.3738223
295331568,5621,bus_stop,Castle Frank Road,POINT (-79.36803 43.6740202),43.6740202,-79.36803
295331569,5621,bus_stop,Castle Frank Road,POINT (-79.3682009 43.6735477),43.6735477,-79.3682009
297943446,5621,bus_stop,Wingrove Hill,POINT (-79.5408012 43.6540535),43.6540535,-79.5408012
299297748,5621,bus_stop,Sandfield Road,POINT (-79.3751574 43.750369),43.750369,-79.3751574
299297749,5621,bus_stop,Sandfield Road,POINT (-79.374704 43.7507153),43.7507153,-79.374704
299299384,5621,bus_stop,York Mills Road South Side,POINT (-79.3841555 43.7473774),43.7473774,-79.3841555
299302982,5621,bus_stop,York Mills Rd at Old York Mills Road,POINT (-79.4045008 43.7441932),43.7441932,-79.4045008
303246708,5621,bus_stop,Glenlake Avenue,POINT (-79.4613133 43.6581704),43.6581704,-79.4613133
303246709,5621,bus_stop,Glenlake Avenue,POINT (-79.4617483 43.6585346),43.6585346,-79.4617483
304881480,5621,bus_stop,Woodbine Avenue,POINT (-79.31591 43.6925578),43.6925578,-79.31591
304881481,5621,bus_stop,Mortimer Avenue,POINT (-79.3159837 43.69288),43.69288,-79.3159837
304881482,5621,bus_stop,Lumsden Avenue,POINT (-79.3156717 43.6927003),43.6927003,-79.3156717
304881483,5621,bus_stop,Woodbine Avenue,POINT (-79.3162005 43.6925697),43.6925697,-79.3162005
304881488,5621,bus_stop,Barker Avenue,POINT (-79.3163619 43.6942506),43.6942506,-79.3163619
304881494,5621,bus_stop,Barker Avenue,POINT (-79.3164543 43.6939137),43.6939137,-79.3164543
304881799,5621,bus_stop,Tower Road,POINT (-79.3956343 43.6647794),43.6647794,-79.3956343
304881868,5621,bus_stop,Tower Road,POINT (-79.3958085 43.6645911),43.6645911,-79.3958085
304896162,5621,bus_stop,Queen's Park Crescent East,POINT (-79.3902985 43.6635595),43.6635595,-79.3902985
305024063,5621,bus_stop,Brunswick Avenue,POINT (-79.4060958 43.6621777),43.6621777,-79.4060958
305024472,5621,bus_stop,Spadina Avenue,POINT (-79.4025054 43.6629086),43.6629086,-79.4025054
305024615,5621,bus_stop,Spadina Avenue,POINT (-79.4017397 43.6632268),43.6632268,-79.4017397
310484952,5621,bus_stop,St. Clair Avenue at Santamonica Boulevard,POINT (-79.2767346 43.7128737),43.7128737,-79.2767346
310484953,5621,bus_stop,St. Clair Avenue at Santamonica Boulevard,POINT (-79.2764283 43.7132409),43.7132409,-79.2764283
310484966,5621,bus_stop,St. Clair Avenue at Elfreda Boulevard,POINT (-79.2731232 43.7136773),43.7136773,-79.2731232
310854157,5621,bus_stop,Weldrick,POINT (-79.434753 43.8607347),43.8607347,-79.434753
312239076,5621,bus_stop,Danforth Avenue,POINT (-79.3323675 43.681263),43.681263,-79.3323675
312239080,5621,bus_stop,Danforth Avenue,POINT (-79.3321982 43.6813074),43.6813074,-79.3321982
312239085,5621,bus_stop,Mountnoel Avenue,POINT (-79.3316287 43.6794487),43.6794487,-79.3316287
312239088,5621,bus_stop,Mountnoel Avenue,POINT (-79.331393 43.6793774),43.6793774,-79.331393
312878101,5621,bus_stop,Glebemount Avenue,POINT (-79.3204068 43.691554),43.691554,-79.3204068
312878177,5621,bus_stop,Glebemount Avenue,POINT (-79.3208062 43.6913522),43.6913522,-79.3208062
312878189,5621,bus_stop,Woodmount Avenue,POINT (-79.3183168 43.6919009),43.6919009,-79.3183168
312878205,5621,bus_stop,Woodmount Avenue,POINT (-79.3180854 43.6920524),43.6920524,-79.3180854
314472530,5621,bus_stop,Leaside Park Drive,POINT (-79.3509848 43.7036668),43.7036668,-79.3509848
314472531,5621,bus_stop,Thorncliffe Park Drive (West),POINT (-79.3498718 43.7046731),43.7046731,-79.3498718
314472532,5621,bus_stop,Thorncliffe Park Drive (West),POINT (-79.3499047 43.7052),43.7052,-79.3499047
314472897,5621,bus_stop,Leaside Park Drive,POINT (-79.3516382 43.7035434),43.7035434,-79.3516382
314473358,5621,bus_stop,Overlea Boulevard,POINT (-79.352511 43.7019329),43.7019329,-79.352511
314473361,5621,bus_stop,Millwood Road/Overlea Boulevard,POINT (-79.3525821 43.7015924),43.7015924,-79.3525821
314473365,5621,bus_stop,Millwood Road,POINT (-79.3527268 43.7024038),43.7024038,-79.3527268
314474340,5621,bus_stop,Overlea Boulevard,POINT (-79.3531954 43.702133),43.702133,-79.3531954
314475021,5621,bus_stop,Village Station Road,POINT (-79.3577321 43.7019747),43.7019747,-79.3577321
314475023,5621,bus_stop,Millwood Rd at Redway Rd,POINT (-79.3577376 43.7017483),43.7017483,-79.3577376
314932053,5621,bus_stop,Millwood Road,POINT (-79.360781 43.7032765),43.7032765,-79.360781
314932696,5621,bus_stop,,POINT (-79.3618065 43.7023735),43.7023735,-79.3618065
314933216,5621,bus_stop,,POINT (-79.3626476 43.7029133),43.7029133,-79.3626476
314933292,5621,bus_stop,,POINT (-79.363363 43.703103),43.703103,-79.363363
314934450,5621,bus_stop,Sutherland Dr at Millwood Rd,POINT (-79.3645273 43.7033973),43.7033973,-79.3645273
314934451,5621,bus_stop,Sutherland Dr at Millwood Rd,POINT (-79.3643299 43.7033414),43.7033414,-79.3643299
314934641,5621,bus_stop,,POINT (-79.3615147 43.7058171),43.7058171,-79.3615147
314934716,5621,bus_stop,,POINT (-79.3619304 43.7061682),43.7061682,-79.3619304
314935276,5621,bus_stop,,POINT (-79.3606537 43.7036168),43.7036168,-79.3606537
315396629,5621,bus_stop,McRae Dr at Rumsey Rd,POINT (-79.3672424 43.7074379),43.7074379,-79.3672424
315396714,5621,bus_stop,McRae Dr at Rumsey Rd,POINT (-79.3672635 43.70723),43.70723,-79.3672635
315511984,5621,bus_stop,Bessborough Drive,POINT (-79.3743854 43.7117247),43.7117247,-79.3743854
315512519,5621,bus_stop,Bayview Avenue,POINT (-79.3759113 43.7112128),43.7112128,-79.3759113
315513064,5621,bus_stop,Bayview Avenue,POINT (-79.3768809 43.7112698),43.7112698,-79.3768809
315634343,5621,bus_stop,Sutherland Dr at Rolph Rd,POINT (-79.3671795 43.7004685),43.7004685,-79.3671795
315634344,5621,bus_stop,Sutherland Dr at Rolph Rd,POINT (-79.3672138 43.7001954),43.7001954,-79.3672138
315634925,5621,bus_stop,Sutherland Dr at Bessborough Dr,POINT (-79.3696943 43.6994942),43.6994942,-79.3696943
315634926,5621,bus_stop,Sutherland Dr at Bessborough Dr,POINT (-79.3702437 43.6991592),43.6991592,-79.3702437
315637572,5621,bus_stop,Sutherland Dr at Hanna Rd,POINT (-79.3656431 43.7017281),43.7017281,-79.3656431
315637573,5621,bus_stop,Sutherland Dr at Hanna Rd,POINT (-79.3655573 43.701393),43.701393,-79.3655573
315644672,5621,bus_stop,Queen Street East,POINT (-79.3168202 43.6666754),43.6666754,-79.3168202
315645215,5621,bus_stop,Queen Street East,POINT (-79.3127653 43.6668003),43.6668003,-79.3127653
315646775,5621,bus_stop,Queen Street East,POINT (-79.3059141 43.6688485),43.6688485,-79.3059141
315648275,5621,bus_stop,Woodbine Ave at Queen Street East,POINT (-79.30579 43.6690944),43.6690944,-79.30579
315651982,5621,bus_stop,Columbine Avenue,POINT (-79.3071983 43.6718362),43.6718362,-79.3071983
315652110,5621,bus_stop,Norway Avenue,POINT (-79.3070515 43.6721513),43.6721513,-79.3070515
315654831,5621,bus_stop,,POINT (-79.3037464 43.6771675),43.6771675,-79.3037464
315655062,5621,bus_stop,Lee Avenue,POINT (-79.3009098 43.678336),43.678336,-79.3009098
315655064,5621,bus_stop,Lee Avenue,POINT (-79.3013009 43.6780241),43.6780241,-79.3013009
315660731,5621,bus_stop,,POINT (-79.2980233 43.6737386),43.6737386,-79.2980233
315661608,5621,bus_stop,Williamson Road,POINT (-79.2969531 43.6736899),43.6736899,-79.2969531
315662115,5621,bus_stop,Queen Street East,POINT (-79.2958995 43.671109),43.671109,-79.2958995
315666189,5621,bus_stop,Southwood Drive,POINT (-79.2962737 43.6741261),43.6741261,-79.2962737
315666357,5621,bus_stop,Williamson Road,POINT (-79.2964212 43.6745755),43.6745755,-79.2964212
315666783,5621,bus_stop,Glen Ames,POINT (-79.2969502 43.6761188),43.6761188,-79.2969502
315666786,5621,bus_stop,Glen Ames,POINT (-79.2967362 43.6758838),43.6758838,-79.2967362
315667024,5621,bus_stop,,POINT (-79.2975331 43.6777416),43.6777416,-79.2975331
315667563,5621,bus_stop,Kingston Road,POINT (-79.2978379 43.6788026),43.6788026,-79.2978379
315667565,5621,bus_stop,Kingston Road,POINT (-79.2981971 43.6792728),43.6792728,-79.2981971
315667829,5621,bus_stop,Main Street,POINT (-79.2978489 43.6790234),43.6790234,-79.2978489
316049451,5621,bus_stop,Plains Road,POINT (-79.3183878 43.6984116),43.6984116,-79.3183878
316049522,5621,bus_stop,Bracebridge Avenue,POINT (-79.3179779 43.6979729),43.6979729,-79.3179779
316049987,5621,bus_stop,Woodbine Avenue,POINT (-79.319345 43.6998173),43.6998173,-79.319345
316049988,5621,bus_stop,Woodbine Ave at O'Connor Dr,POINT (-79.3188182 43.6999427),43.6999427,-79.3188182
316049989,5621,bus_stop,Woodbine Avenue,POINT (-79.3196044 43.6999785),43.6999785,-79.3196044
316050063,5621,bus_stop,Woodvale Crescent,POINT (-79.3216015 43.6995355),43.6995355,-79.3216015
316050065,5621,bus_stop,Woodmount Avenue,POINT (-79.3215566 43.6993883),43.6993883,-79.3215566
316050346,5621,bus_stop,Taylor Drive,POINT (-79.3234169 43.6991522),43.6991522,-79.3234169
316050404,5621,bus_stop,Glebemount Avenue,POINT (-79.323174 43.6990373),43.6990373,-79.323174
316050528,5621,bus_stop,Woodbine Avenue,POINT (-79.3172686 43.6965016),43.6965016,-79.3172686
316050533,5621,bus_stop,Woodbine Avenue,POINT (-79.3175384 43.6963037),43.6963037,-79.3175384
316050534,5621,bus_stop,Cosburn Avenue,POINT (-79.3172598 43.696314),43.696314,-79.3172598
316050537,5621,bus_stop,Cosburn Avenue,POINT (-79.317597 43.6965368),43.6965368,-79.317597
317419648,5621,bus_stop,Sammon Avenue,POINT (-79.3153128 43.6913213),43.6913213,-79.3153128
317419649,5621,bus_stop,Sammon Avenue,POINT (-79.3149519 43.6910142),43.6910142,-79.3149519
317419754,5621,bus_stop,Milverton Boulevard,POINT (-79.3144146 43.689202),43.689202,-79.3144146
317419755,5621,bus_stop,Milverton Boulevard,POINT (-79.313876 43.6884839),43.6884839,-79.313876
317419895,5621,bus_stop,Danforth Avenue,POINT (-79.3126314 43.6855809),43.6855809,-79.3126314
317419896,5621,bus_stop,Danforth Avenue,POINT (-79.3129206 43.6857655),43.6857655,-79.3129206
317420718,5621,bus_stop,Woodbine Ave at Kewbeach Ave,POINT (-79.3047741 43.6655064),43.6655064,-79.3047741
317421241,5621,bus_stop,Joseph Duggan Road,POINT (-79.3063072 43.6642356),43.6642356,-79.3063072
317421243,5621,bus_stop,Joseph Duggan Road,POINT (-79.3062 43.6645099),43.6645099,-79.3062
317428345,5621,bus_stop,Bellefair Avenue,POINT (-79.2997459 43.6701709),43.6701709,-79.2997459
324818638,5621,bus_stop,Millwood Rd at McRae Dr,POINT (-79.3678833 43.7048244),43.7048244,-79.3678833
331342384,5621,bus_stop,Marlee Avenue,POINT (-79.4468115 43.7154238),43.7154238,-79.4468115
331343108,5621,bus_stop,Bolingbroke Road,POINT (-79.4495288 43.7148241),43.7148241,-79.4495288
331343109,5621,bus_stop,Bolingbroke Road,POINT (-79.4493285 43.7151672),43.7151672,-79.4493285
331343160,5621,bus_stop,Corona Street,POINT (-79.4525581 43.7142439),43.7142439,-79.4525581
331343176,5621,bus_stop,Via Bagnato,POINT (-79.4522519 43.7144991),43.7144991,-79.4522519
331343708,5621,bus_stop,Dufferin Street,POINT (-79.4542498 43.7142587),43.7142587,-79.4542498
331345256,5621,bus_stop,Lawrence Avenue West,POINT (-79.4545942 43.7145272),43.7145272,-79.4545942
331345258,5621,bus_stop,Lawrence Avenue West,POINT (-79.4549593 43.7144168),43.7144168,-79.4549593
331345337,5621,bus_stop,Apex Road,POINT (-79.4553047 43.7162331),43.7162331,-79.4553047
331345342,5621,bus_stop,Dane Avenue,POINT (-79.454968 43.7160989),43.7160989,-79.454968
334378072,5621,bus_stop,Bedford Road,POINT (-79.3972589 43.6681354),43.6681354,-79.3972589
334378080,5621,bus_stop,Bedford Road,POINT (-79.3974484 43.6679282),43.6679282,-79.3974484
334394001,5621,bus_stop,Hoskin Avenue,POINT (-79.3937439 43.6656375),43.6656375,-79.3937439
339062003,5621,bus_stop,St George Street,POINT (-79.3997207 43.6676669),43.6676669,-79.3997207
339062004,5621,bus_stop,St George Street,POINT (-79.3999415 43.6673863),43.6673863,-79.3999415
339231927,5621,bus_stop,Spadina Avenue,POINT (-79.4040445 43.6665468),43.6665468,-79.4040445
339231930,5621,bus_stop,Spadina Avenue,POINT (-79.4036801 43.6667828),43.6667828,-79.4036801
339271212,5621,bus_stop,Woodbine Avenue,POINT (-79.3126841 43.6858091),43.6858091,-79.3126841
339271213,5621,bus_stop,Woodbine Avenue,POINT (-79.3129061 43.6855323),43.6855323,-79.3129061
339544684,5621,bus_stop,Flemington Rd at Blossomfield Dr,POINT (-79.4483565 43.719176),43.719176,-79.4483565
339545679,5621,bus_stop,Flemington Rd at Stockton Rd,POINT (-79.4493769 43.7209351),43.7209351,-79.4493769
339545766,5621,bus_stop,Flemington Rd at Stockton Rd,POINT (-79.4491255 43.7211569),43.7211569,-79.4491255
339547324,5621,bus_stop,Flemington Rd at Ranee Avenue,POINT (-79.4485785 43.7228998),43.7228998,-79.4485785
339547328,5621,bus_stop,Flemington Rd at Ranee Avenue,POINT (-79.4484627 43.7231299),43.7231299,-79.4484627
339547338,5621,bus_stop,Ranee Avenue at Flemington Rd,POINT (-79.4480364 43.7234863),43.7234863,-79.4480364
339550393,5621,bus_stop,Samor Road,POINT (-79.4554277 43.7181748),43.7181748,-79.4554277
339550669,5621,bus_stop,Orfus Road,POINT (-79.4562809 43.7205521),43.7205521,-79.4562809
339550681,5621,bus_stop,Orfus Road,POINT (-79.4559172 43.72037),43.72037,-79.4559172
339551284,5621,bus_stop,Jane Osler Boulevard,POINT (-79.4570205 43.7250843),43.7250843,-79.4570205
339551865,5621,bus_stop,Dufferin St at Wilson St,POINT (-79.4586893 43.7318658),43.7318658,-79.4586893
339554215,5621,bus_stop,Crescent Road,POINT (-79.389351 43.6768423),43.6768423,-79.389351
339577091,5621,bus_stop,Woodbine Subway Station,POINT (-79.3125389 43.6864531),43.6864531,-79.3125389
339577092,5621,bus_stop,Woodbine Subway Station,POINT (-79.3122533 43.6864791),43.6864791,-79.3122533
339906515,5621,bus_stop,Trophy Drive,POINT (-79.3107128 43.7280553),43.7280553,-79.3107128
339906522,5621,bus_stop,Tinder Crescent,POINT (-79.3106786 43.7277707),43.7277707,-79.3106786
339908577,5621,bus_stop,Elvaston Drive,POINT (-79.3097971 43.7301282),43.7301282,-79.3097971
339908580,5621,bus_stop,Elvaston Drive,POINT (-79.3096377 43.7302131),43.7302131,-79.3096377
339910419,5621,bus_stop,Wigmore Drive,POINT (-79.3104706 43.7324859),43.7324859,-79.3104706
339910422,5621,bus_stop,Wigmore Drive,POINT (-79.3102326 43.7322908),43.7322908,-79.3102326
339916785,5621,bus_stop,Sloane Avenue,POINT (-79.3123787 43.7355477),43.7355477,-79.3123787
339916787,5621,bus_stop,Sweeney Drive,POINT (-79.3126385 43.7357564),43.7357564,-79.3126385
339916790,5621,bus_stop,Kenewen Court,POINT (-79.3112658 43.7341639),43.7341639,-79.3112658
339916792,5621,bus_stop,Anewen Drive,POINT (-79.3116354 43.7342548),43.7342548,-79.3116354
339919050,5621,bus_stop,Eglinton Avenue East,POINT (-79.3137239 43.7257438),43.7257438,-79.3137239
339919051,5621,bus_stop,Eglinton Avenue East,POINT (-79.3134479 43.7257205),43.7257205,-79.3134479
339919053,5621,bus_stop,Eglinton Avenue East,POINT (-79.3133031 43.7266343),43.7266343,-79.3133031
339919054,5621,bus_stop,Eglinton Avenue East,POINT (-79.3131784 43.7264367),43.7264367,-79.3131784
343288072,5621,bus_stop,Gretna Avenue,POINT (-79.3157009 43.7354326),43.7354326,-79.3157009
343288084,5621,bus_stop,,POINT (-79.3176343 43.7374627),43.7374627,-79.3176343
344473389,5621,bus_stop,College Street,POINT (-79.3860591 43.6610299),43.6610299,-79.3860591
344473391,5621,bus_stop,College Street,POINT (-79.3856162 43.6606446),43.6606446,-79.3856162
344473400,5621,bus_stop,Gerrard Street West,POINT (-79.3850249 43.6586028),43.6586028,-79.3850249
344474067,5621,bus_stop,Gerrard Street,POINT (-79.3819285 43.6590298),43.6590298,-79.3819285
344478727,5621,bus_stop,Dundas Street East,POINT (-79.3711808 43.6584975),43.6584975,-79.3711808
344478736,5621,bus_stop,Dundas Street East,POINT (-79.3711326 43.6588094),43.6588094,-79.3711326
344479606,5621,bus_stop,Gerrard Street East,POINT (-79.3724078 43.661423),43.661423,-79.3724078
344479607,5621,bus_stop,Gerrard Street East,POINT (-79.3720858 43.6610949),43.6610949,-79.3720858
344480060,5621,bus_stop,Carlton Street,POINT (-79.3729096 43.6630623),43.6630623,-79.3729096
344480061,5621,bus_stop,Carlton Street,POINT (-79.3732236 43.6634059),43.6634059,-79.3732236
344539024,5621,bus_stop,Cedarvale Avenue,POINT (-79.3157294 43.6967047),43.6967047,-79.3157294
344539032,5621,bus_stop,Cedarvale Avenue,POINT (-79.315338 43.6969763),43.6969763,-79.315338
344542878,5621,bus_stop,Carlton Street,POINT (-79.3766333 43.6626555),43.6626555,-79.3766333
344542879,5621,bus_stop,Carlton Street,POINT (-79.3767398 43.6621963),43.6621963,-79.3767398
344545938,5621,bus_stop,Church Street,POINT (-79.3808025 43.6657866),43.6657866,-79.3808025
344545945,5621,bus_stop,Church Street,POINT (-79.3810526 43.665604),43.665604,-79.3810526
344936975,5621,bus_stop,Gerrard Street East,POINT (-79.3109147 43.6809229),43.6809229,-79.3109147
344936977,5621,bus_stop,Gerrard Street East,POINT (-79.3105743 43.6807076),43.6807076,-79.3105743
352862766,5621,bus_stop,Gledhill Avenue,POINT (-79.3110131 43.693858),43.693858,-79.3110131
352862767,5621,bus_stop,Oak Park Avenue,POINT (-79.3105434 43.6938455),43.6938455,-79.3105434
352862768,5621,bus_stop,Westlake Avenue,POINT (-79.3086412 43.6942788),43.6942788,-79.3086412
352862769,5621,bus_stop,Westlake Avenue,POINT (-79.3078559 43.6945744),43.6945744,-79.3078559
354963483,5621,bus_stop,Woodmount Avenue,POINT (-79.3199446 43.6958093),43.6958093,-79.3199446
354963498,5621,bus_stop,Glebemount Avenue,POINT (-79.3216666 43.6954181),43.6954181,-79.3216666
354963508,5621,bus_stop,Binswood Avenue,POINT (-79.3240494 43.694919),43.694919,-79.3240494
359211289,5621,bus_stop,Eglinton Avenue,POINT (-79.2973602 43.7254056),43.7254056,-79.2973602
359211296,5621,bus_stop,Craigton Drive,POINT (-79.2977965 43.7270357),43.7270357,-79.2977965
359211475,5621,bus_stop,Victoria Park Avenue,POINT (-79.3024369 43.7248901),43.7248901,-79.3024369
360476429,5621,bus_stop,Old Mill Station,POINT (-79.495091 43.6501618),43.6501618,-79.495091
364170253,5621,bus_stop,Kipling Avenue at Steeles Avenue West,POINT (-79.5902118 43.7600572),43.7600572,-79.5902118
364922958,5621,bus_stop,,POINT (-79.4956433 43.6495807),43.6495807,-79.4956433
364922963,5621,bus_stop,,POINT (-79.495083 43.6496059),43.6496059,-79.495083
364929008,5621,bus_stop,,POINT (-79.5027055 43.6627277),43.6627277,-79.5027055
364929010,5621,bus_stop,,POINT (-79.5026885 43.6626129),43.6626129,-79.5026885
364934589,5621,bus_stop,Edenbridge Drive,POINT (-79.5088048 43.6804476),43.6804476,-79.5088048
364934597,5621,bus_stop,Edenbridge Drive,POINT (-79.5089868 43.6812359),43.6812359,-79.5089868
364935928,5621,bus_stop,East Drive,POINT (-79.5061994 43.6769557),43.6769557,-79.5061994
364935932,5621,bus_stop,East Drive,POINT (-79.5057762 43.6767263),43.6767263,-79.5057762
364940285,5621,bus_stop,Fontenay Court,POINT (-79.5106319 43.6828642),43.6828642,-79.5106319
364940289,5621,bus_stop,Eglinton Avenue West,POINT (-79.5109535 43.6836259),43.6836259,-79.5109535
364940292,5621,bus_stop,Eglinton Avenue West,POINT (-79.5117659 43.6840912),43.6840912,-79.5117659
364940297,5621,bus_stop,Scarlett Road,POINT (-79.5111528 43.6841225),43.6841225,-79.5111528
364940302,5621,bus_stop,Scarlett Road,POINT (-79.5116093 43.6837514),43.6837514,-79.5116093
364942164,5621,bus_stop,Richview Road,POINT (-79.5124008 43.6857707),43.6857707,-79.5124008
364942166,5621,bus_stop,Richview Road,POINT (-79.5126484 43.6856044),43.6856044,-79.5126484
364942684,5621,bus_stop,La Rose Avenue,POINT (-79.5133929 43.6869967),43.6869967,-79.5133929
364942689,5621,bus_stop,La Rose Avenue,POINT (-79.5131189 43.6871318),43.6871318,-79.5131189
364942703,5621,bus_stop,Chapman Road,POINT (-79.5142722 43.6892858),43.6892858,-79.5142722
364942977,5621,bus_stop,Saxony Crescent,POINT (-79.5156271 43.6907935),43.6907935,-79.5156271
364943398,5621,bus_stop,Scarlettwood Court,POINT (-79.5174295 43.6927989),43.6927989,-79.5174295
364943401,5621,bus_stop,Tilden Crescent,POINT (-79.5186287 43.6941203),43.6941203,-79.5186287
364943404,5621,bus_stop,Crane Avenue,POINT (-79.5191931 43.6942655),43.6942655,-79.5191931
364944359,5621,bus_stop,Lawrence Ave West at Hickory Tree Rd,POINT (-79.5202355 43.6990524),43.6990524,-79.5202355
365491210,5621,bus_stop,,POINT (-79.3899603 43.6600661),43.6600661,-79.3899603
366560195,5621,bus_stop,St. Clair Avenue West,POINT (-79.4673614 43.6723622),43.6723622,-79.4673614
366560197,5621,bus_stop,St. Clair Avenue West,POINT (-79.4672695 43.6721296),43.6721296,-79.4672695
366561357,5621,bus_stop,Sheppard Avenue West,POINT (-79.4863371 43.7452766),43.7452766,-79.4863371
368118348,5621,bus_stop,,POINT (-79.5209015 43.7013208),43.7013208,-79.5209015
368118351,5621,bus_stop,,POINT (-79.5204597 43.7014154),43.7014154,-79.5204597
368124915,5621,bus_stop,,POINT (-79.5235329 43.7023745),43.7023745,-79.5235329
368125578,5621,bus_stop,Weston Rd at Church Street,POINT (-79.5251809 43.7029765),43.7029765,-79.5251809
368130800,5621,bus_stop,Weston Rd at Coulter Ave,POINT (-79.5285022 43.7046178),43.7046178,-79.5285022
368130803,5621,bus_stop,Weston Rd at Coulter Ave,POINT (-79.5283266 43.7046977),43.7046977,-79.5283266
368139383,5621,bus_stop,Weston Rd at Oak St,POINT (-79.5338176 43.7079934),43.7079934,-79.5338176
368139388,5621,bus_stop,,POINT (-79.5333487 43.7077317),43.7077317,-79.5333487
368145037,5621,bus_stop,Armel Court,POINT (-79.5454742 43.7212723),43.7212723,-79.5454742
368145038,5621,bus_stop,Armel Court,POINT (-79.5459694 43.7213226),43.7213226,-79.5459694
368146835,5621,bus_stop,Albion Rd at Irwin Rd,POINT (-79.552122 43.7265802),43.7265802,-79.552122
368146836,5621,bus_stop,Albion Rd at Arcot Blvd,POINT (-79.5521109 43.7270501),43.7270501,-79.5521109
368146838,5621,bus_stop,Arcot Blvd at Albion Rd,POINT (-79.5516967 43.7270042),43.7270042,-79.5516967
368146839,5621,bus_stop,Arcot Blvd at Albion Rd,POINT (-79.5513082 43.7270013),43.7270013,-79.5513082
368368855,5621,bus_stop,Annabelle Road,POINT (-79.5860152 43.7511091),43.7511091,-79.5860152
368368917,5621,bus_stop,Beacon Hill Road,POINT (-79.5872671 43.7536876),43.7536876,-79.5872671
368369436,5621,bus_stop,Kidron Valley Drive,POINT (-79.5885156 43.7563612),43.7563612,-79.5885156
369053526,5621,bus_stop,Kennedy Station,POINT (-79.2637081 43.7323896),43.7323896,-79.2637081
369054673,5621,bus_stop,Herron Avenue,POINT (-79.28555 43.7109739),43.7109739,-79.28555
369054677,5621,bus_stop,Herron Avenue,POINT (-79.2850804 43.7113107),43.7113107,-79.2850804
370960659,5621,bus_stop,Leslie Street,POINT (-79.3671056 43.7898834),43.7898834,-79.3671056
371382834,5621,bus_stop,,POINT (-79.4854705 43.6487278),43.6487278,-79.4854705
371382843,5621,bus_stop,Jane St at Weatherall St,POINT (-79.4852107 43.651366),43.651366,-79.4852107
371382845,5621,bus_stop,,POINT (-79.4845653 43.6500256),43.6500256,-79.4845653
371382868,5621,bus_stop,,POINT (-79.4802013 43.6503561),43.6503561,-79.4802013
371385455,5621,bus_stop,,POINT (-79.4805582 43.6501005),43.6501005,-79.4805582
371385474,5621,bus_stop,,POINT (-79.4775743 43.6509598),43.6509598,-79.4775743
371386345,5621,bus_stop,,POINT (-79.4764348 43.6510093),43.6510093,-79.4764348
371386348,5621,bus_stop,,POINT (-79.4760785 43.6512693),43.6512693,-79.4760785
371387582,5621,bus_stop,College Street,POINT (-79.3908452 43.6601378),43.6601378,-79.3908452
371387584,5621,bus_stop,University Ave at College St - Queen's Park Station,POINT (-79.3901469 43.659694),43.659694,-79.3901469
371713788,5621,bus_stop,Leslie Street,POINT (-79.3691312 43.790156),43.790156,-79.3691312
371713907,5621,bus_stop,Finch Avenue East,POINT (-79.3683385 43.790432),43.790432,-79.3683385
371713933,5621,bus_stop,Finch Avenue East,POINT (-79.3677327 43.7896611),43.7896611,-79.3677327
371714117,5621,bus_stop,Ravel Road,POINT (-79.3652689 43.7902118),43.7902118,-79.3652689
371714152,5621,bus_stop,Ravel Road,POINT (-79.3652002 43.790503),43.790503,-79.3652002
371716619,5621,bus_stop,Trudy Road,POINT (-79.3624536 43.7908004),43.7908004,-79.3624536
371719318,5621,bus_stop,Linus Road,POINT (-79.3577233 43.7919176),43.7919176,-79.3577233
371719581,5621,bus_stop,Brahms Avenue,POINT (-79.357842 43.7921423),43.7921423,-79.357842
371719584,5621,bus_stop,Liszt Gate,POINT (-79.362913 43.7910404),43.7910404,-79.362913
371719863,5621,bus_stop,Finch Avenue at Don Mills Road,POINT (-79.3552474 43.7924298),43.7924298,-79.3552474
371719872,5621,bus_stop,Finch Avenue at Don Mills Road East Side,POINT (-79.3540211 43.7926496),43.7926496,-79.3540211
371719873,5621,bus_stop,Finch Avenue at Don Mills Road,POINT (-79.3541062 43.7929232),43.7929232,-79.3541062
371719880,5621,bus_stop,Finch Avenue at Don Mills Road West Side,POINT (-79.3551478 43.7927273),43.7927273,-79.3551478
371719888,5621,bus_stop,Don Mills Road at Finch Avenue East,POINT (-79.3544608 43.7924587),43.7924587,-79.3544608
371719906,5621,bus_stop,Don Mills Road at Finch Avenue East,POINT (-79.3549862 43.7928759),43.7928759,-79.3549862
372352829,5621,bus_stop,Carlton Street,POINT (-79.3678238 43.6641536),43.6641536,-79.3678238
372353750,5621,bus_stop,Gerrard Street East,POINT (-79.3673212 43.662422),43.662422,-79.3673212
372353755,5621,bus_stop,Gerrard Street East/Parliament Street,POINT (-79.3670556 43.6622813),43.6622813,-79.3670556
372367645,5621,bus_stop,Gerrard Street East,POINT (-79.3428896 43.6677264),43.6677264,-79.3428896
372367648,5621,bus_stop,Gerrard Street East,POINT (-79.34285 43.6681249),43.6681249,-79.34285
372371989,5621,bus_stop,Gerrard Street East,POINT (-79.3281386 43.671042),43.671042,-79.3281386
372371992,5621,bus_stop,Gerrard Street East,POINT (-79.3278403 43.6708139),43.6708139,-79.3278403
372374386,5621,bus_stop,Gerrard Street East,POINT (-79.3194772 43.6731465),43.6731465,-79.3194772
372507748,5621,bus_stop,Plains Road,POINT (-79.3285409 43.6957125),43.6957125,-79.3285409
372508108,5621,bus_stop,Coxwell Avenue,POINT (-79.3292314 43.6959033),43.6959033,-79.3292314
372508112,5621,bus_stop,Plains Road,POINT (-79.3289215 43.6960732),43.6960732,-79.3289215
372511563,5621,bus_stop,O'Connor Drive,POINT (-79.3293104 43.6976642),43.6976642,-79.3293104
372511762,5621,bus_stop,O'Connor Drive,POINT (-79.3294883 43.6973027),43.6973027,-79.3294883
372513392,5621,bus_stop,Coxwell Avenue,POINT (-79.3297415 43.697593),43.697593,-79.3297415
372559135,5621,bus_stop,Donside Drive,POINT (-79.2874211 43.7015159),43.7015159,-79.2874211
372560124,5621,bus_stop,Donside Drive,POINT (-79.2873132 43.7017249),43.7017249,-79.2873132
372561029,5621,bus_stop,Dolphin Drive,POINT (-79.2866338 43.700304),43.700304,-79.2866338
372561426,5621,bus_stop,Dolphin Drive,POINT (-79.2868955 43.7001988),43.7001988,-79.2868955
372563971,5621,bus_stop,Albion Avenue,POINT (-79.2849287 43.6957002),43.6957002,-79.2849287
372573105,5621,bus_stop,Pharmacy Ave at Denton Ave,POINT (-79.2843742 43.6944349),43.6944349,-79.2843742
372573113,5621,bus_stop,Pharmacy Ave at Denton Ave,POINT (-79.2841734 43.6944659),43.6944659,-79.2841734
373111267,5621,bus_stop,Logan Avenue,POINT (-79.3530886 43.688656),43.688656,-79.3530886
373111268,5621,bus_stop,Logan Avenue,POINT (-79.3533678 43.6883992),43.6883992,-79.3533678
373111936,5621,bus_stop,Logan Avenue,POINT (-79.35182 43.6849703),43.6849703,-79.35182
373121484,5621,bus_stop,Carlaw Avenue,POINT (-79.3496944 43.6853852),43.6853852,-79.3496944
373121601,5621,bus_stop,Carlaw Avenue,POINT (-79.3494763 43.6853219),43.6853219,-79.3494763
373123180,5621,bus_stop,Pape Avenue,POINT (-79.3472696 43.6858668),43.6858668,-79.3472696
373123185,5621,bus_stop,Pape Avenue,POINT (-79.3476337 43.6856718),43.6856718,-79.3476337
373123428,5621,bus_stop,Mortimer Avenue,POINT (-79.347291 43.6856956),43.6856956,-79.347291
373123430,5621,bus_stop,Mortimer Avenue,POINT (-79.347561 43.6858565),43.6858565,-79.347561
373126693,5621,bus_stop,Sentinel Rd at Finch Avenue W,POINT (-79.5002599 43.7612633),43.7612633,-79.5002599
373126694,5621,bus_stop,Sentinel Rd at Finch Avenue W,POINT (-79.4998017 43.7608703),43.7608703,-79.4998017
373126847,5621,bus_stop,Sentinel Road,POINT (-79.4997394 43.7612251),43.7612251,-79.4997394
373126850,5621,bus_stop,Sentinel Road,POINT (-79.5002588 43.7608705),43.7608705,-79.5002588
373129084,5621,bus_stop,Sentinel Rd at Fountainhead Rd,POINT (-79.5004589 43.7626917),43.7626917,-79.5004589
373129085,5621,bus_stop,Sentinel Rd at Fountainhead Rd,POINT (-79.5007487 43.7625696),43.7625696,-79.5007487
373130361,5621,bus_stop,Sentinel Rd at Murray Ross Pkway,POINT (-79.5010395 43.7645549),43.7645549,-79.5010395
373130363,5621,bus_stop,Sentinel Rd at Murray Ross Pkway,POINT (-79.5013042 43.7643757),43.7643757,-79.5013042
373143956,5621,bus_stop,Sentinel Rd at Cook Rd,POINT (-79.5010017 43.7669591),43.7669591,-79.5010017
373144408,5621,bus_stop,Sentinel Rd at Cook Rd,POINT (-79.5013741 43.7671814),43.7671814,-79.5013741
373146495,5621,bus_stop,Sentinel Road at The Pond Road,POINT (-79.5022688 43.7698318),43.7698318,-79.5022688
373146853,5621,bus_stop,The Pond Road at Sentinel Road West Side,POINT (-79.5029392 43.7700046),43.7700046,-79.5029392
373152282,5621,bus_stop,,POINT (-79.5094441 43.7740894),43.7740894,-79.5094441
373161944,5621,bus_stop,Birchmount Road at St. Clair Avenue East North Side,POINT (-79.2712557 43.7146783),43.7146783,-79.2712557
373162153,5621,bus_stop,St. Clair Avenue at Birchmount Road West Side,POINT (-79.271928 43.7141504),43.7141504,-79.271928
373162252,5621,bus_stop,Birchmount Road at St. Clair Avenue East South Side,POINT (-79.2710942 43.7138184),43.7138184,-79.2710942
373162339,5621,bus_stop,St. Clair Avenue at Birchmount Road East Side,POINT (-79.2705592 43.7141802),43.7141802,-79.2705592
373179381,5621,bus_stop,Birchmount Road at Anaconda Avenue,POINT (-79.2729427 43.7184459),43.7184459,-79.2729427
378695127,5621,bus_stop,Talgarth Road,POINT (-79.5707014 43.6626854),43.6626854,-79.5707014
379697137,5621,bus_stop,Rathburn Road,POINT (-79.5639954 43.654739),43.654739,-79.5639954
379699959,5621,bus_stop,Rathburn Road,POINT (-79.5644982 43.655236),43.655236,-79.5644982
380027340,5621,bus_stop,Sherbourne Street,POINT (-79.3766839 43.6725087),43.6725087,-79.3766839
380027343,5621,bus_stop,Bloor Street East,POINT (-79.376653 43.6721792),43.6721792,-79.376653
380027345,5621,bus_stop,Bloor Street East,POINT (-79.3768625 43.6720617),43.6720617,-79.3768625
380027429,5621,bus_stop,Isabella Street,POINT (-79.3759158 43.6698532),43.6698532,-79.3759158
380027441,5621,bus_stop,Earl Street,POINT (-79.3753851 43.6689832),43.6689832,-79.3753851
380036438,5621,bus_stop,Sherbourne Street,POINT (-79.3745197 43.6671996),43.6671996,-79.3745197
380036439,5621,bus_stop,Sherbourne Street,POINT (-79.3748562 43.6668802),43.6668802,-79.3748562
380036440,5621,bus_stop,Wellesley Street East,POINT (-79.3748511 43.6672824),43.6672824,-79.3748511
380036441,5621,bus_stop,Wellesley Street East,POINT (-79.3745164 43.6669121),43.6669121,-79.3745164
380036457,5621,bus_stop,,POINT (-79.3739551 43.6651626),43.6651626,-79.3739551
380036458,5621,bus_stop,,POINT (-79.3738091 43.66521),43.66521,-79.3738091
380039253,5621,bus_stop,Shuter Street,POINT (-79.3703046 43.6564381),43.6564381,-79.3703046
380039254,5621,bus_stop,Shuter Street,POINT (-79.3699634 43.6560291),43.6560291,-79.3699634
380039756,5621,bus_stop,Queen Street East,POINT (-79.3694943 43.6542973),43.6542973,-79.3694943
380039757,5621,bus_stop,Queen Street East,POINT (-79.3692755 43.6542285),43.6542285,-79.3692755
380040063,5621,bus_stop,King Street East,POINT (-79.3684053 43.6514467),43.6514467,-79.3684053
380040064,5621,bus_stop,King Street East,POINT (-79.3680662 43.6510772),43.6510772,-79.3680662
380040585,5621,bus_stop,Front Street East,POINT (-79.3680565 43.6505946),43.6505946,-79.3680565
380040586,5621,bus_stop,Front Street East,POINT (-79.367667 43.6501771),43.6501771,-79.367667
380041658,5621,bus_stop,Scott Street,POINT (-79.3763355 43.6470636),43.6470636,-79.3763355
380041660,5621,bus_stop,Yonge Street,POINT (-79.377059 43.6465997),43.6465997,-79.377059
380041661,5621,bus_stop,Yonge Street,POINT (-79.3768001 43.6470712),43.6470712,-79.3768001
380041687,5621,bus_stop,Wellington Street West,POINT (-79.3770386 43.6473685),43.6473685,-79.3770386
380042344,5621,bus_stop,Bay Street,POINT (-79.3788314 43.6461486),43.6461486,-79.3788314
380042346,5621,bus_stop,Bay Street,POINT (-79.3786062 43.6460158),43.6460158,-79.3786062
380042347,5621,bus_stop,Front Street West,POINT (-79.3789084 43.645801),43.645801,-79.3789084
380042542,5621,bus_stop,Front Street West,POINT (-79.3790764 43.645579),43.645579,-79.3790764
380209076,5621,bus_stop,Seneca Hill Drive,POINT (-79.3508205 43.7934062),43.7934062,-79.3508205
380312274,5621,bus_stop,Bernard Avenue,POINT (-79.4426615 43.8943458),43.8943458,-79.4426615
380312284,5621,bus_stop,Elgin Mills,POINT (-79.4414459 43.8891008),43.8891008,-79.4414459
380312285,5621,bus_stop,Elgin Mills,POINT (-79.440014 43.890604),43.890604,-79.440014
380313596,5621,bus_stop,Yonge Street / Crosby Avenue,POINT (-79.4392095 43.8803873),43.8803873,-79.4392095
380316266,5621,bus_stop,Yonge Street / Arnold Crescent,POINT (-79.4379426 43.8737436),43.8737436,-79.4379426
380324470,5621,bus_stop,Yonge Street / May Avenue,POINT (-79.4358537 43.8642015),43.8642015,-79.4358537
380324478,5621,bus_stop,Weldrick,POINT (-79.4346697 43.8597556),43.8597556,-79.4346697
380337988,5621,bus_stop,Yonge Street / Baif Boulevard,POINT (-79.4345664 43.8586832),43.8586832,-79.4345664
380338235,5621,bus_stop,Yonge Street / Carrville Road,POINT (-79.4333118 43.8533865),43.8533865,-79.4333118
380338260,5621,bus_stop,Yonge Street / Scott Drive,POINT (-79.4316478 43.8466242),43.8466242,-79.4316478
380556628,5621,bus_stop,Burnhamthorpe Road,POINT (-79.5596865 43.6460682),43.6460682,-79.5596865
380564728,5621,bus_stop,Burnhamthorpe Road,POINT (-79.5600321 43.6459314),43.6459314,-79.5600321
380579288,5621,bus_stop,Capri Road,POINT (-79.5630533 43.6525744),43.6525744,-79.5630533
380580700,5621,bus_stop,Capri Road,POINT (-79.5634153 43.6528587),43.6528587,-79.5634153
380600015,5621,bus_stop,Bloor Street West,POINT (-79.55631 43.6367105),43.6367105,-79.55631
380742765,5621,bus_stop,The East Mall at Gordon Park Dr,POINT (-79.5564107 43.6341147),43.6341147,-79.5564107
380743694,5621,bus_stop,The East Mall at Gordon Park Dr,POINT (-79.5568594 43.6343616),43.6343616,-79.5568594
380938564,5621,bus_stop,Bloor Street West,POINT (-79.5570049 43.6371899),43.6371899,-79.5570049
381094445,5621,bus_stop,The East Mall at Yarn Rd,POINT (-79.5533558 43.6322579),43.6322579,-79.5533558
381097640,5621,bus_stop,The East Mall at Yarn Rd,POINT (-79.5534576 43.6320457),43.6320457,-79.5534576
381099443,5621,bus_stop,Dundas Street At Billingham Road,POINT (-79.5490582 43.6307459),43.6307459,-79.5490582
381101078,5621,bus_stop,Dundas Street At Billingham Road,POINT (-79.5492549 43.6303739),43.6303739,-79.5492549
381105764,5621,bus_stop,Dundas Street at Paulart Drive,POINT (-79.546573 43.631027),43.631027,-79.546573
381107274,5621,bus_stop,Dundas Street at Paulart Drive,POINT (-79.5466305 43.6313414),43.6313414,-79.5466305
382800148,5621,bus_stop,Kingston Road at Parkcrest Drive,POINT (-79.2297323 43.7272291),43.7272291,-79.2297323
382828219,5621,bus_stop,Markham Road at Kingston Road North Side,POINT (-79.2170865 43.7394007),43.7394007,-79.2170865
382828317,5621,bus_stop,Markham Road at Cougar Court,POINT (-79.2194687 43.7448427),43.7448427,-79.2194687
382828319,5621,bus_stop,Markham Road at Luella Street,POINT (-79.2199331 43.7452162),43.7452162,-79.2199331
382828327,5621,bus_stop,Markham Road at Blakemanor Boulevard South Side,POINT (-79.2223642 43.7508586),43.7508586,-79.2223642
382828330,5621,bus_stop,Markham Road at Blakemanor Boulevard,POINT (-79.2220259 43.7509141),43.7509141,-79.2220259
382828336,5621,bus_stop,Markham Road at Stevenwood Road North Side,POINT (-79.223952 43.7559291),43.7559291,-79.223952
382849917,5621,bus_stop,Markham Road at Greencedar Circuit,POINT (-79.2249718 43.7580445),43.7580445,-79.2249718
382849925,5621,bus_stop,Markham Road at Greencrest Circuit North Side,POINT (-79.2246062 43.758139),43.758139,-79.2246062
382850002,5621,bus_stop,Greenholm Circuit,POINT (-79.2261684 43.7625463),43.7625463,-79.2261684
382850005,5621,bus_stop,Markham Road at Scranton Road,POINT (-79.2272051 43.7650466),43.7650466,-79.2272051
382850055,5621,bus_stop,Markham Road at Painted Post Drive,POINT (-79.2280661 43.7673205),43.7673205,-79.2280661
382850102,5621,bus_stop,Markham Road at Brimorton Drive,POINT (-79.2304219 43.7733423),43.7733423,-79.2304219
382856796,5621,bus_stop,Markham Road at Ellesmere Road,POINT (-79.2314509 43.7762427),43.7762427,-79.2314509
382873638,5621,bus_stop,Markham Road at Tuxedo Court,POINT (-79.2326442 43.7792581),43.7792581,-79.2326442
382873639,5621,bus_stop,Markham Road at Tuxedo Court,POINT (-79.2331673 43.7796691),43.7796691,-79.2331673
382873646,5621,bus_stop,Markham Road at Progress Avenue,POINT (-79.2335994 43.7816611),43.7816611,-79.2335994
382873648,5621,bus_stop,Progress Avenue at Markham Road East Side,POINT (-79.2332817 43.7818855),43.7818855,-79.2332817
382892987,5621,bus_stop,Markham Road at Milner Avenue,POINT (-79.2367105 43.7893059),43.7893059,-79.2367105
382893099,5621,bus_stop,Markham Road at Sheppard Avenue East,POINT (-79.2383937 43.7936373),43.7936373,-79.2383937
382893104,5621,bus_stop,Sheppard Avenue at Markham Road,POINT (-79.2384549 43.7940658),43.7940658,-79.2384549
382893106,5621,bus_stop,Markham Road at Verne Crescent,POINT (-79.2398696 43.7960749),43.7960749,-79.2398696
382895235,5621,bus_stop,Markham Road at McLevin Avenue,POINT (-79.2407226 43.7983435),43.7983435,-79.2407226
382895236,5621,bus_stop,McLevin Avenue at Markham Road East Side,POINT (-79.2405383 43.7985501),43.7985501,-79.2405383
382898655,5621,bus_stop,Markham Road at Finch Avenue East,POINT (-79.2427636 43.8127219),43.8127219,-79.2427636
382898656,5621,bus_stop,Finch Avenue at Markham Road,POINT (-79.2426875 43.8131854),43.8131854,-79.2426875
382898657,5621,bus_stop,Markham Road at Finch Avenue East,POINT (-79.2433838 43.8131749),43.8131749,-79.2433838
382898658,5621,bus_stop,Finch Avenue at Markham Road,POINT (-79.2434354 43.8127038),43.8127038,-79.2434354
382898728,5621,bus_stop,Markham Road at Turbina Avenue,POINT (-79.2489414 43.8271678),43.8271678,-79.2489414
382900841,5621,bus_stop,Markham Road at Steeles Avenue East,POINT (-79.2509105 43.836433),43.836433,-79.2509105
382900842,5621,bus_stop,Markham Road / Elson Street,POINT (-79.2516226 43.840285),43.840285,-79.2516226
382981117,5621,bus_stop,Woodmount Avenue,POINT (-79.3198494 43.6959629),43.6959629,-79.3198494
382981118,5621,bus_stop,Roblin Avenue,POINT (-79.3222816 43.6954475),43.6954475,-79.3222816
382983755,5621,bus_stop,Markham Road / Denison Street,POINT (-79.2525384 43.8442089),43.8442089,-79.2525384
382983756,5621,bus_stop,Markham Road / Denison Street,POINT (-79.2530891 43.8446703),43.8446703,-79.2530891
382983758,5621,bus_stop,Markham Road / New Delhi Drive,POINT (-79.2533402 43.8476061),43.8476061,-79.2533402
382983759,5621,bus_stop,Markham Road / Golden Avenue,POINT (-79.2539203 43.847944),43.847944,-79.2539203
382987280,5621,bus_stop,Markham Road / 14th Avenue,POINT (-79.2559115 43.8563244),43.8563244,-79.2559115
382987310,5621,bus_stop,14th Avenue / Markham Road,POINT (-79.2549929 43.8561992),43.8561992,-79.2549929
382987311,5621,bus_stop,Markham Road / 14th Avenue,POINT (-79.2556122 43.8566692),43.8566692,-79.2556122
382987380,5621,bus_stop,Main Street Markham / Highway 7,POINT (-79.2595865 43.8735818),43.8735818,-79.2595865
382987517,5621,bus_stop,Highway 7 / Main Street Markham,POINT (-79.2593098 43.8738746),43.8738746,-79.2593098
382987518,5621,bus_stop,Highway 7 / Main Street Markham,POINT (-79.260274 43.8739431),43.8739431,-79.260274
382988956,5621,bus_stop,Main Street Markham / Thomson Court,POINT (-79.259935 43.874839),43.874839,-79.259935
383016100,5621,bus_stop,Main Street Markham / Robinson Street,POINT (-79.2606417 43.877757),43.877757,-79.2606417
383160471,5621,bus_stop,Highway 7 / McCowan Road,POINT (-79.2851299 43.8671648),43.8671648,-79.2851299
383160473,5621,bus_stop,Highway 7 / McCowan,POINT (-79.283991 43.8671138),43.8671138,-79.283991
383160569,5621,bus_stop,Highway 7 / Bullock Drive,POINT (-79.2923834 43.8654459),43.8654459,-79.2923834
383160571,5621,bus_stop,Highway 7 / Bullock Drive,POINT (-79.2921544 43.8652253),43.8652253,-79.2921544
383160632,5621,bus_stop,Kennedy Road / Highway 7,POINT (-79.3037572 43.8623433),43.8623433,-79.3037572
383160634,5621,bus_stop,Kennedy Road / Highway 7,POINT (-79.3033483 43.8623778),43.8623778,-79.3033483
383209866,5621,bus_stop,YMCA Boulevard / Kennedy Road,POINT (-79.3092755 43.8532251),43.8532251,-79.3092755
383209873,5621,bus_stop,Rivis Road / YMCA Boulevard,POINT (-79.3112014 43.8534591),43.8534591,-79.3112014
383209874,5621,bus_stop,Rivis Road / YMCA Boulevard,POINT (-79.3114198 43.8532619),43.8532619,-79.3114198
383209915,5621,bus_stop,Warden Avenue / Clegg Road,POINT (-79.3336044 43.8537015),43.8537015,-79.3336044
383209916,5621,bus_stop,,POINT (-79.3345379 43.8534701),43.8534701,-79.3345379
383209918,5621,bus_stop,Town Centre,POINT (-79.3399234 43.8538833),43.8538833,-79.3399234
383209927,5621,bus_stop,Montgomery,POINT (-79.3526455 43.8510769),43.8510769,-79.3526455
383209928,5621,bus_stop,Montgomery,POINT (-79.3513505 43.8512779),43.8512779,-79.3513505
383237996,5621,bus_stop,Highway 7 / Woodbine Avenue,POINT (-79.3577542 43.8501807),43.8501807,-79.3577542
383237998,5621,bus_stop,Woodbine Avenue,POINT (-79.3587004 43.8497307),43.8497307,-79.3587004
383238001,5621,bus_stop,Allstate Parkway,POINT (-79.3638114 43.8486733),43.8486733,-79.3638114
383238002,5621,bus_stop,Allstate Parkway,POINT (-79.3637543 43.8485819),43.8485819,-79.3637543
383238072,5621,bus_stop,Highway 7 / East Beaver Creek Road,POINT (-79.3777117 43.8457214),43.8457214,-79.3777117
383238073,5621,bus_stop,Hghway 7 / Commerce Valley Drive,POINT (-79.3784572 43.8450541),43.8450541,-79.3784572
383238089,5621,bus_stop,Highway 7 / Leslie Street,POINT (-79.3826081 43.844095),43.844095,-79.3826081
383238090,5621,bus_stop,Highway 7 / Leslie Street,POINT (-79.3820391 43.8447056),43.8447056,-79.3820391
383238113,5621,bus_stop,Highway 7 / West Beaver Creek Road,POINT (-79.3861847 43.8437384),43.8437384,-79.3861847
383238114,5621,bus_stop,Highway 7 / Commerce Valley Drive,POINT (-79.3869191 43.8431078),43.8431078,-79.3869191
383282561,5621,bus_stop,Highway 7 / Valleymede Drive,POINT (-79.3915416 43.8425134),43.8425134,-79.3915416
383282566,5621,bus_stop,Highway 7 / Times Avenue,POINT (-79.3919071 43.84196),43.84196,-79.3919071
383282882,5621,bus_stop,Times Avenue / Highway 7,POINT (-79.3914973 43.8419284),43.8419284,-79.3914973
383282886,5621,bus_stop,Valleymede Drive / Highway 7,POINT (-79.3920358 43.8426297),43.8426297,-79.3920358
383282912,5621,bus_stop,Highway 7 / South Park Road,POINT (-79.3986205 43.8404578),43.8404578,-79.3986205
383282966,5621,bus_stop,Highway 7 / Bayview Avenue,POINT (-79.4055344 43.8402697),43.8402697,-79.4055344
383282972,5621,bus_stop,Highway 7 / Bayview Avenue,POINT (-79.4055062 43.8399247),43.8399247,-79.4055062
383360376,5621,bus_stop,Bathurst Street / Westmount Boulevard,POINT (-79.452619 43.820484),43.820484,-79.452619
383360379,5621,bus_stop,Bathurst Street / Atkinson Avenue,POINT (-79.4512983 43.8169746),43.8169746,-79.4512983
383400221,5621,bus_stop,Centre Street / New Westminster Drive,POINT (-79.4570029 43.8096287),43.8096287,-79.4570029
383400223,5621,bus_stop,Centre Street / New Westminster Drive,POINT (-79.4576399 43.809143),43.809143,-79.4576399
383400272,5621,bus_stop,Dufferin,POINT (-79.4753615 43.8055255),43.8055255,-79.4753615
383405959,5621,bus_stop,Keele,POINT (-79.5001929 43.8001736),43.8001736,-79.5001929
383422252,5621,bus_stop,Ian Macdonald Boulevard at The Chimneystack Road,POINT (-79.5004746 43.7762027),43.7762027,-79.5004746
383422255,5621,bus_stop,,POINT (-79.5038575 43.778479),43.778479,-79.5038575
383422257,5621,bus_stop,Steeles Avenue West at Founders Road East Side,POINT (-79.5037939 43.7792004),43.7792004,-79.5037939
383422260,5621,bus_stop,Jane Street / Steeles Avenue,POINT (-79.5215157 43.7761828),43.7761828,-79.5215157
383433078,5621,bus_stop,Vaughan Corporate Centre,POINT (-79.5304598 43.7916128),43.7916128,-79.5304598
383433080,5621,bus_stop,Vaughan Corporate Centre,POINT (-79.5307148 43.7915534),43.7915534,-79.5307148
383448334,5621,bus_stop,Weston,POINT (-79.5483286 43.7892737),43.7892737,-79.5483286
383448336,5621,bus_stop,Weston,POINT (-79.5467367 43.7894682),43.7894682,-79.5467367
383486391,5621,bus_stop,Ansley Grove,POINT (-79.5568079 43.7875399),43.7875399,-79.5568079
383486394,5621,bus_stop,Ansley Grove,POINT (-79.5554599 43.7877195),43.7877195,-79.5554599
383486409,5621,bus_stop,Highway 7 / Aberdeen Avenue,POINT (-79.5663558 43.7857115),43.7857115,-79.5663558
383486423,5621,bus_stop,Pine Valley,POINT (-79.5738504 43.7840562),43.7840562,-79.5738504
383486424,5621,bus_stop,Pine Valley,POINT (-79.5724077 43.7842292),43.7842292,-79.5724077
383486427,5621,bus_stop,Highway 7 / Wigwoss Drive,POINT (-79.5793948 43.7830207),43.7830207,-79.5793948
383486430,5621,bus_stop,Highway 7 / Islington Avenue,POINT (-79.5897002 43.7803582),43.7803582,-79.5897002
383486431,5621,bus_stop,Highway 7 / Islington Avenue,POINT (-79.5901162 43.7805905),43.7805905,-79.5901162
383486441,5621,bus_stop,Highway 7 / Kipling Avenue,POINT (-79.5970649 43.7789659),43.7789659,-79.5970649
383486442,5621,bus_stop,Highway 7 / Kipling Avenue,POINT (-79.597542 43.7784487),43.7784487,-79.597542
383551099,5621,bus_stop,Opposite 1915 Martin Grove Road,POINT (-79.5963773 43.7460625),43.7460625,-79.5963773
383551100,5621,bus_stop,Martin Grove Road at Albion Road,POINT (-79.5946193 43.7424506),43.7424506,-79.5946193
383551102,5621,bus_stop,Martin Grove Road at Finch Avenue West South Side,POINT (-79.5913721 43.7359286),43.7359286,-79.5913721
383551105,5621,bus_stop,Milkwood Avenue,POINT (-79.588739 43.730235),43.730235,-79.588739
383551107,5621,bus_stop,Martin Grove Rd at Westhumber Blvd,POINT (-79.5869395 43.726135),43.726135,-79.5869395
383551113,5621,bus_stop,Porterfield Road,POINT (-79.5852147 43.7222795),43.7222795,-79.5852147
383551115,5621,bus_stop,Jeffcoat Drive,POINT (-79.5835935 43.7189016),43.7189016,-79.5835935
383551116,5621,bus_stop,Racine Road,POINT (-79.5825845 43.7167575),43.7167575,-79.5825845
383551119,5621,bus_stop,Rexdale Boulevard,POINT (-79.5811501 43.7136323),43.7136323,-79.5811501
383551121,5621,bus_stop,,POINT (-79.5799897 43.7111763),43.7111763,-79.5799897
383551122,5621,bus_stop,Bethridge Road,POINT (-79.5784663 43.7076832),43.7076832,-79.5784663
383551129,5621,bus_stop,Martin Grove Rd at Bellfield Rd,POINT (-79.5759444 43.7021557),43.7021557,-79.5759444
383551133,5621,bus_stop,,POINT (-79.5727959 43.6953139),43.6953139,-79.5727959
383551135,5621,bus_stop,Dixon Rd,POINT (-79.5712471 43.6919308),43.6919308,-79.5712471
383551137,5621,bus_stop,Waterbury Drive,POINT (-79.5693361 43.6878533),43.6878533,-79.5693361
383551138,5621,bus_stop,Martin Grove Rd at Tollington Road,POINT (-79.5689365 43.6869094),43.6869094,-79.5689365
383551141,5621,bus_stop,Redgrave Drive,POINT (-79.5674408 43.683516),43.683516,-79.5674408
383551144,5621,bus_stop,Longbourne Drive,POINT (-79.5662775 43.6809815),43.6809815,-79.5662775
383551145,5621,bus_stop,Caverley Drive,POINT (-79.5655881 43.6794384),43.6794384,-79.5655881
383551146,5621,bus_stop,Martin Grove Rd at Richgrove Dr,POINT (-79.5644628 43.6770056),43.6770056,-79.5644628
383551147,5621,bus_stop,Martin Grove Rd at Eglinton Avenue West,POINT (-79.5634732 43.674708),43.674708,-79.5634732
383551148,5621,bus_stop,Eglinton Avenue W at Martin Grove Rd,POINT (-79.5626356 43.674397),43.674397,-79.5626356
383551149,5621,bus_stop,Martin Grove Road,POINT (-79.5629167 43.674686),43.674686,-79.5629167
383562249,5621,bus_stop,Kipling Avenue,POINT (-79.5513286 43.6769922),43.6769922,-79.5513286
383562253,5621,bus_stop,Kipling Avenue,POINT (-79.5506053 43.677416),43.677416,-79.5506053
383562257,5621,bus_stop,Eglinton Avenue West,POINT (-79.5512022 43.677468),43.677468,-79.5512022
383562280,5621,bus_stop,Islington Avenue,POINT (-79.5392004 43.6796914),43.6796914,-79.5392004
383562287,5621,bus_stop,Eglinton Avenue West,POINT (-79.5392624 43.6799805),43.6799805,-79.5392624
383562292,5621,bus_stop,Islington Avenue,POINT (-79.538743 43.6800189),43.6800189,-79.538743
383562297,5621,bus_stop,Eglinton Avenue West,POINT (-79.5387009 43.6797196),43.6797196,-79.5387009
383562307,5621,bus_stop,Eden Valley Drive,POINT (-79.5330714 43.6809161),43.6809161,-79.5330714
383562314,5621,bus_stop,Eglinton Ave W at Russell Rd,POINT (-79.5326767 43.6812465),43.6812465,-79.5326767
383562374,5621,bus_stop,Royal York Road,POINT (-79.5268696 43.6821122),43.6821122,-79.5268696
383629899,5621,bus_stop,Eglinton Avenue West,POINT (-79.4889916 43.686792),43.686792,-79.4889916
383629919,5621,bus_stop,,POINT (-79.4761573 43.6897042),43.6897042,-79.4761573
383629922,5621,bus_stop,Keele Street,POINT (-79.4752439 43.6900184),43.6900184,-79.4752439
383629953,5621,bus_stop,,POINT (-79.4701338 43.6911293),43.6911293,-79.4701338
383629978,5621,bus_stop,Caledonia Road,POINT (-79.462337 43.6929221),43.6929221,-79.462337
383629980,5621,bus_stop,Eglinton Avenue West,POINT (-79.4622941 43.6931532),43.6931532,-79.4622941
383629983,5621,bus_stop,Eglinton Avenue West,POINT (-79.4620688 43.6928651),43.6928651,-79.4620688
383629988,5621,bus_stop,Caledonia Road,POINT (-79.4618638 43.6931938),43.6931938,-79.4618638
383629991,5621,bus_stop,,POINT (-79.459536 43.6937268),43.6937268,-79.459536
383629996,5621,bus_stop,,POINT (-79.4561302 43.6942737),43.6942737,-79.4561302
383629999,5621,bus_stop,,POINT (-79.4537113 43.6948314),43.6948314,-79.4537113
383630023,5621,bus_stop,Eglinton Avenue West,POINT (-79.4506419 43.6958948),43.6958948,-79.4506419
383630036,5621,bus_stop,Glenholme Avenue,POINT (-79.4454691 43.6966503),43.6966503,-79.4454691
383630063,5621,bus_stop,Oakwood Avenue,POINT (-79.4429631 43.6971711),43.6971711,-79.4429631
383630066,5621,bus_stop,Oakwood Avenue,POINT (-79.4425707 43.6974566),43.6974566,-79.4425707
383630071,5621,bus_stop,Marlee Avenue,POINT (-79.4395159 43.6979105),43.6979105,-79.4395159
383727236,5621,bus_stop,Carlingview Drive At Renforth Drive,POINT (-79.5913472 43.6771528),43.6771528,-79.5913472
383727414,5621,bus_stop,International Boulevard at Carlingview Drive East Side,POINT (-79.5905023 43.6769193),43.6769193,-79.5905023
383728658,5621,bus_stop,,POINT (-79.5881934 43.6774531),43.6774531,-79.5881934
383747455,5621,bus_stop,Wellesworth Dr at Faversham Cres,POINT (-79.5797053 43.6588993),43.6588993,-79.5797053
383747899,5621,bus_stop,Wellesworth Dr at Eringate Dr,POINT (-79.5808178 43.6606419),43.6606419,-79.5808178
384785110,5621,bus_stop,Midland Avenue,POINT (-79.2642111 43.7515977),43.7515977,-79.2642111
384785114,5621,bus_stop,Bellamy Road North,POINT (-79.2356196 43.7575325),43.7575325,-79.2356196
384785115,5621,bus_stop,Bellamy Rd N at Lawrence Ave E,POINT (-79.235463 43.7578769),43.7578769,-79.235463
384785133,5621,bus_stop,Opposite Cedarbrae Mall,POINT (-79.2308622 43.7588019),43.7588019,-79.2308622
384785134,5621,bus_stop,Cedarbrae Mall,POINT (-79.2299833 43.7587216),43.7587216,-79.2299833
384791121,5621,bus_stop,Markham Road at Eastpark Boulevard,POINT (-79.2242622 43.7557324),43.7557324,-79.2242622
385037741,5622,bus_station,Dufferin Gate Loop,POINT (-79.4257854 43.6343519),43.6343519,-79.4257854
385614522,5621,bus_stop,Bellamy Rd N at Cedar Brae Boulevard,POINT (-79.2334226 43.7518128),43.7518128,-79.2334226
385614523,5621,bus_stop,Bellamy Rd N at Banmoor Boulevard,POINT (-79.2332131 43.7519664),43.7519664,-79.2332131
385614876,5621,bus_stop,Burnview Crescent,POINT (-79.2342179 43.7537068),43.7537068,-79.2342179
385614877,5621,bus_stop,Burnview Crescent,POINT (-79.2339991 43.753886),43.753886,-79.2339991
385615008,5621,bus_stop,Eastpark Boulevard,POINT (-79.2348983 43.7553471),43.7553471,-79.2348983
385615009,5621,bus_stop,Eastpark Boulevard,POINT (-79.2347101 43.7554941),43.7554941,-79.2347101
385624414,5621,bus_stop,Lawrence Avenue East (Scarborough General Hospital),POINT (-79.2452628 43.7552536),43.7552536,-79.2452628
385624415,5621,bus_stop,Lawrence Avenue East (Scarborough General Hospital),POINT (-79.245674 43.7557578),43.7557578,-79.245674
385624416,5621,bus_stop,McCowan Road (Scarborough General Hospital),POINT (-79.2459358 43.7553207),43.7553207,-79.2459358
385624417,5621,bus_stop,McCowan Road East Side,POINT (-79.2452839 43.7557248),43.7557248,-79.2452839
385624766,5621,bus_stop,Eglinton Avenue East,POINT (-79.2462685 43.7372922),43.7372922,-79.2462685
385624767,5621,bus_stop,Eglinton Avenue East,POINT (-79.24625 43.736889),43.736889,-79.24625
386339904,5621,bus_stop,Warden Station Bus Terminal,POINT (-79.2796952 43.7111851),43.7111851,-79.2796952
386378997,5621,bus_stop,Bessarion Avenue,POINT (-79.3759926 43.7691992),43.7691992,-79.3759926
386421119,5621,bus_stop,Bessarion Avenue,POINT (-79.3760067 43.7694823),43.7694823,-79.3760067
386775162,5621,bus_stop,Sheppard Ave at Greenbriar Rd,POINT (-79.380203 43.7685643),43.7685643,-79.380203
386775164,5621,bus_stop,Greenbriar Road,POINT (-79.3804016 43.7682789),43.7682789,-79.3804016
386776445,5621,bus_stop,Rean Road,POINT (-79.3832466 43.7676066),43.7676066,-79.3832466
386776793,5621,bus_stop,Barbury Place,POINT (-79.3850915 43.7672741),43.7672741,-79.3850915
386776794,5621,bus_stop,Barbury Place,POINT (-79.3855125 43.7674719),43.7674719,-79.3855125
386778320,5621,bus_stop,Bayview Avenue,POINT (-79.3873935 43.7667011),43.7667011,-79.3873935
386801494,5621,bus_stop,Fifeshire Road (North),POINT (-79.3868663 43.7608414),43.7608414,-79.3868663
386801495,5621,bus_stop,Truman Road,POINT (-79.3864098 43.7604484),43.7604484,-79.3864098
386801813,5621,bus_stop,Harrison Road,POINT (-79.3786352 43.7499223),43.7499223,-79.3786352
386801814,5621,bus_stop,Harrison Road,POINT (-79.3789227 43.749592),43.749592,-79.3789227
386852065,5621,bus_stop,Keane Avenue,POINT (-79.5603827 43.6488472),43.6488472,-79.5603827
386852143,5621,bus_stop,Keane Avenue,POINT (-79.5603049 43.6491993),43.6491993,-79.5603049
387461259,5621,bus_stop,Wellesley Station,POINT (-79.3839088 43.6653371),43.6653371,-79.3839088
387461260,5621,bus_stop,Wellesley Station,POINT (-79.3836001 43.665403),43.665403,-79.3836001
387787107,5621,bus_stop,Rochefort Drive,POINT (-79.3376542 43.7178331),43.7178331,-79.3376542
387787109,5621,bus_stop,Eglinton Avenue East,POINT (-79.3387487 43.7209059),43.7209059,-79.3387487
387787111,5621,bus_stop,Wynford Drive,POINT (-79.3393395 43.7228838),43.7228838,-79.3393395
387787112,5621,bus_stop,Don Mills Road,POINT (-79.3393308 43.7232409),43.7232409,-79.3393308
387787114,5621,bus_stop,Green Belt Drive,POINT (-79.3406972 43.7281081),43.7281081,-79.3406972
387789999,5621,bus_stop,Minton Place,POINT (-79.3507885 43.6948633),43.6948633,-79.3507885
387790000,5621,bus_stop,Hopedale Avenue,POINT (-79.350047 43.696395),43.696395,-79.350047
387790001,5621,bus_stop,Rivercourt Boulevard,POINT (-79.3495925 43.6965047),43.6965047,-79.3495925
387790717,5621,bus_stop,,POINT (-79.3474626 43.7064332),43.7064332,-79.3474626
387790724,5621,bus_stop,East York Town Centre,POINT (-79.3452021 43.7069962),43.7069962,-79.3452021
387791394,5621,bus_stop,Thorncliffe Park Drive (East),POINT (-79.3438453 43.7073098),43.7073098,-79.3438453
387791406,5621,bus_stop,William Morgan Drive,POINT (-79.341558 43.7078588),43.7078588,-79.341558
387791578,5621,bus_stop,Don Mills Road/Gateway Boulevard,POINT (-79.3344658 43.7105907),43.7105907,-79.3344658
387792391,5621,bus_stop,Gateway Boulevard,POINT (-79.3366127 43.7145315),43.7145315,-79.3366127
387792392,5621,bus_stop,Gateway Boulevard,POINT (-79.3360352 43.714247),43.714247,-79.3360352
387792393,5621,bus_stop,Saint Dennis Drive (Ontario Science Centre),POINT (-79.3375672 43.7167259),43.7167259,-79.3375672
387792394,5621,bus_stop,St Dennis Drive,POINT (-79.3370395 43.716458),43.716458,-79.3370395
387792399,5621,bus_stop,The Donway West,POINT (-79.3420356 43.732617),43.732617,-79.3420356
387792401,5621,bus_stop,1057 Don Mills Road,POINT (-79.3424757 43.7343553),43.7343553,-79.3424757
387792402,5621,bus_stop,Shops at Don Mills,POINT (-79.3429303 43.7346073),43.7346073,-79.3429303
387792543,5621,bus_stop,Don Mills Road,POINT (-79.3438926 43.7369471),43.7369471,-79.3438926
387792544,5621,bus_stop,Don Mills Road,POINT (-79.3431286 43.7373615),43.7373615,-79.3431286
387792546,5621,bus_stop,Lawrence Avenue East,POINT (-79.3437045 43.7373701),43.7373701,-79.3437045
387792547,5621,bus_stop,Lawrence Avenue East,POINT (-79.3431303 43.7369929),43.7369929,-79.3431303
387793094,5621,bus_stop,The Donway West,POINT (-79.3446413 43.7410196),43.7410196,-79.3446413
387793095,5621,bus_stop,The Donway West,POINT (-79.344143 43.7407268),43.7407268,-79.344143
387793098,5621,bus_stop,Chipping Road,POINT (-79.3451757 43.744545),43.744545,-79.3451757
387793099,5621,bus_stop,Chipping Road,POINT (-79.3456824 43.7448671),43.7448671,-79.3456824
387793101,5621,bus_stop,Farmcote Road,POINT (-79.3461091 43.7480587),43.7480587,-79.3461091
387793102,5621,bus_stop,Mallard Road,POINT (-79.3466456 43.7483222),43.7483222,-79.3466456
387793111,5621,bus_stop,Kern Road,POINT (-79.3467942 43.7503535),43.7503535,-79.3467942
387793131,5621,bus_stop,1450 Don Mills Road,POINT (-79.3468387 43.7532202),43.7532202,-79.3468387
387793133,5621,bus_stop,York Mills Road,POINT (-79.3472639 43.7560234),43.7560234,-79.3472639
387793134,5621,bus_stop,Don Mills Road,POINT (-79.3466302 43.7560642),43.7560642,-79.3466302
387793135,5621,bus_stop,Don Mills Road,POINT (-79.3474711 43.7555412),43.7555412,-79.3474711
387793136,5621,bus_stop,York Mills Road,POINT (-79.346809 43.7556593),43.7556593,-79.346809
387793138,5621,bus_stop,Moatfield Drive,POINT (-79.3468798 43.7585059),43.7585059,-79.3468798
387793139,5621,bus_stop,Moatfield Drive,POINT (-79.3473827 43.7582604),43.7582604,-79.3473827
387793288,5621,bus_stop,Graydon Hall Drive,POINT (-79.3470378 43.7615499),43.7615499,-79.3470378
387793289,5621,bus_stop,Duncan Mill Road,POINT (-79.3474241 43.7614776),43.7614776,-79.3474241
387793290,5621,bus_stop,Graydon Hall Place,POINT (-79.3467202 43.7650455),43.7650455,-79.3467202
387793510,5621,bus_stop,Parkway Forest Drive,POINT (-79.3463082 43.7694298),43.7694298,-79.3463082
387793511,5621,bus_stop,Havenbrook Boulevard,POINT (-79.3467206 43.7697356),43.7697356,-79.3467206
387793522,5621,bus_stop,George Henry Boulevard,POINT (-79.3462363 43.77342),43.77342,-79.3462363
387793523,5621,bus_stop,George Henry Boulevard,POINT (-79.3467525 43.7736045),43.7736045,-79.3467525
387793885,5621,bus_stop,Sheppard Avenue at Don Mills Road West Side,POINT (-79.3476976 43.7750966),43.7750966,-79.3476976
388301518,5621,bus_stop,Beth Street,POINT (-79.2964696 43.7045336),43.7045336,-79.2964696
388301519,5621,bus_stop,Ferris Road,POINT (-79.2954783 43.7057842),43.7057842,-79.2954783
388301520,5621,bus_stop,Gower Street,POINT (-79.2970566 43.7023894),43.7023894,-79.2970566
388303182,5621,bus_stop,Wynford Dr at Don Mills Rd,POINT (-79.3383421 43.723152),43.723152,-79.3383421
388303184,5621,bus_stop,Don Mills Road,POINT (-79.339395 43.7201541),43.7201541,-79.339395
388377252,5621,bus_stop,Don Mills Road at Sheppard Avenue East North Side,POINT (-79.3470322 43.7756567),43.7756567,-79.3470322
388378025,5621,bus_stop,Don Mills Road at Leith Hill Road,POINT (-79.3482104 43.7772439),43.7772439,-79.3482104
388378026,5621,bus_stop,Don Mills Road at Leith Hill Road North Side,POINT (-79.3477154 43.7773906),43.7773906,-79.3477154
388379012,5621,bus_stop,Don Mills Road at Fairview Mall Drive North Side,POINT (-79.3486689 43.7794182),43.7794182,-79.3486689
388382370,5621,bus_stop,Don Mills Road at Godstone Road,POINT (-79.3488445 43.7826878),43.7826878,-79.3488445
388382392,5621,bus_stop,Don Mills Road / Deerford Road,POINT (-79.3505245 43.7852678),43.7852678,-79.3505245
388382400,5621,bus_stop,Don Mills Road at Van Horne Avenue,POINT (-79.353287 43.7874758),43.7874758,-79.353287
388382406,5621,bus_stop,Van Horne Avenue at Don Mills Road,POINT (-79.352381 43.7875362),43.7875362,-79.352381
388382412,5621,bus_stop,Van Horne Avenue at Don Mills Road East Side,POINT (-79.3523253 43.7874282),43.7874282,-79.3523253
388382437,5621,bus_stop,Don Mills Road at Seneca Hill Drive,POINT (-79.3539051 43.7901077),43.7901077,-79.3539051
390341937,5621,bus_stop,Glenwood Crescent,POINT (-79.3159887 43.7023513),43.7023513,-79.3159887
390344431,5621,bus_stop,St. Clair Avenue East,POINT (-79.3128489 43.7055732),43.7055732,-79.3128489
390344432,5621,bus_stop,St. Clair Avenue East,POINT (-79.3123291 43.7058681),43.7058681,-79.3123291
390344433,5621,bus_stop,Curity Avenue,POINT (-79.311031 43.7081526),43.7081526,-79.311031
390344436,5621,bus_stop,Curity Avenue,POINT (-79.3106477 43.7081783),43.7081783,-79.3106477
390344437,5621,bus_stop,O'Connor Drive,POINT (-79.3114878 43.7080074),43.7080074,-79.3114878
390344438,5621,bus_stop,Curity Avenue,POINT (-79.311602 43.7083022),43.7083022,-79.311602
390344439,5621,bus_stop,Cranfield Road,POINT (-79.3140058 43.7092775),43.7092775,-79.3140058
390344440,5621,bus_stop,Cranfield Road,POINT (-79.3139752 43.7090711),43.7090711,-79.3139752
390344563,5621,bus_stop,Hollinger Road,POINT (-79.3161527 43.7101923),43.7101923,-79.3161527
390344564,5621,bus_stop,Curity Avenue,POINT (-79.3164484 43.7103176),43.7103176,-79.3164484
390345183,5621,bus_stop,Waterman Avenue,POINT (-79.3153325 43.7113165),43.7113165,-79.3153325
390345184,5621,bus_stop,Waterman Avenue,POINT (-79.3154472 43.7116666),43.7116666,-79.3154472
390345185,5621,bus_stop,Dohme Avenue,POINT (-79.3143821 43.7129959),43.7129959,-79.3143821
390345186,5621,bus_stop,Dohme Avenue,POINT (-79.3139997 43.7129959),43.7129959,-79.3139997
390345187,5621,bus_stop,Northline Road,POINT (-79.3126111 43.7149945),43.7149945,-79.3126111
390345188,5621,bus_stop,Bermondsey Road,POINT (-79.3124786 43.7152304),43.7152304,-79.3124786
390345189,5621,bus_stop,Bermondsey Road,POINT (-79.3135363 43.7171083),43.7171083,-79.3135363
390345190,5621,bus_stop,125 Bermondsey Road,POINT (-79.3137234 43.7181968),43.7181968,-79.3137234
390345535,5621,bus_stop,,POINT (-79.3140774 43.7183692),43.7183692,-79.3140774
390345796,5621,bus_stop,Bartley Drive,POINT (-79.3142254 43.7196851),43.7196851,-79.3142254
390345799,5621,bus_stop,Bartley Drive,POINT (-79.3148245 43.7198049),43.7198049,-79.3148245
390347640,5621,bus_stop,195 Bermondsey Road,POINT (-79.3143611 43.7239397),43.7239397,-79.3143611
390347641,5621,bus_stop,,POINT (-79.3150585 43.7234938),43.7234938,-79.3150585
390349487,5621,bus_stop,Sloane Avenue,POINT (-79.3131705 43.726186),43.726186,-79.3131705
390349488,5621,bus_stop,Bermondsey Road,POINT (-79.3138499 43.7259221),43.7259221,-79.3138499
390351373,5621,bus_stop,38 Carnforth Road,POINT (-79.3156579 43.7394209),43.7394209,-79.3156579
390351374,5621,bus_stop,Lawrence Avenue East,POINT (-79.3141576 43.7409248),43.7409248,-79.3141576
390351384,5621,bus_stop,Carnforth Road,POINT (-79.3140237 43.7416489),43.7416489,-79.3140237
390351385,5621,bus_stop,Carnforth Road,POINT (-79.3138249 43.7414077),43.7414077,-79.3138249
390351408,5621,bus_stop,Curlew Drive,POINT (-79.319693 43.7413132),43.7413132,-79.319693
390351409,5621,bus_stop,Railside Road (East),POINT (-79.3196944 43.7410522),43.7410522,-79.3196944
390351746,5621,bus_stop,Underhill Drive,POINT (-79.3244961 43.7409367),43.7409367,-79.3244961
390351747,5621,bus_stop,Railside Road (West),POINT (-79.3238355 43.7407542),43.7407542,-79.3238355
390355265,5621,bus_stop,Tremont Crescent (East),POINT (-79.3500408 43.7356644),43.7356644,-79.3500408
390355266,5621,bus_stop,Tremont Crescent (East),POINT (-79.3503086 43.7358188),43.7358188,-79.3503086
390355267,5621,bus_stop,Tremont Crescent (West),POINT (-79.3536398 43.7351251),43.7351251,-79.3536398
390355268,5621,bus_stop,Tremont Crescent (West),POINT (-79.353689 43.7348843),43.7348843,-79.353689
390355440,5621,bus_stop,1300 Leslie Street,POINT (-79.3555131 43.7319999),43.7319999,-79.3555131
390356915,5621,bus_stop,Eglinton Avenue East,POINT (-79.3503026 43.7175455),43.7175455,-79.3503026
390356916,5621,bus_stop,Eglinton Avenue East,POINT (-79.3502363 43.7182381),43.7182381,-79.3502363
390359894,5621,bus_stop,Eglinton Avenue East,POINT (-79.377128 43.7120458),43.7120458,-79.377128
391060673,5621,bus_stop,Wellesley Street West,POINT (-79.3918764 43.6632518),43.6632518,-79.3918764
391060729,5621,bus_stop,Queen's Park Cres East at St Joseph St North Side,POINT (-79.3912324 43.6653156),43.6653156,-79.3912324
391060807,5621,bus_stop,Queen's Part Cres East at Wellesley St West,POINT (-79.3904276 43.6633509),43.6633509,-79.3904276
391060808,5621,bus_stop,Queen's Park Crescent East,POINT (-79.3904115 43.6637619),43.6637619,-79.3904115
391075984,5621,bus_stop,Bloor Street West,POINT (-79.3897747 43.6701278),43.6701278,-79.3897747
391075985,5621,bus_stop,Bloor Street West,POINT (-79.3896614 43.6704524),43.6704524,-79.3896614
391089889,5621,bus_stop,St. Joseph Street,POINT (-79.3877865 43.6661487),43.6661487,-79.3877865
391089932,5621,bus_stop,St. Joseph Street,POINT (-79.3879305 43.665828),43.665828,-79.3879305
391178554,5621,bus_stop,Queen's Park Cres East at College St North Side,POINT (-79.3901665 43.6609115),43.6609115,-79.3901665
392098706,5621,bus_stop,Mount Pleasant Road,POINT (-79.3867323 43.7004438),43.7004438,-79.3867323
392098707,5621,bus_stop,Mount Pleasant Road,POINT (-79.3871747 43.7002131),43.7002131,-79.3871747
392098708,5621,bus_stop,Mount Pleasant Road West Side,POINT (-79.3874826 43.7002914),43.7002914,-79.3874826
392130197,5621,bus_stop,Binswood Avenue,POINT (-79.3247055 43.6949116),43.6949116,-79.3247055
392130802,5621,bus_stop,Coxwell Avenue,POINT (-79.327833 43.6942405),43.6942405,-79.327833
392130803,5621,bus_stop,Coxwell Avenue,POINT (-79.3282106 43.6940331),43.6940331,-79.3282106
392130804,5621,bus_stop,Coxwell Avenue,POINT (-79.3285638 43.6941029),43.6941029,-79.3285638
392130805,5621,bus_stop,Cosburn Avenue,POINT (-79.3278407 43.6940207),43.6940207,-79.3278407
392130806,5621,bus_stop,Cosburn Avenue,POINT (-79.3281732 43.6942588),43.6942588,-79.3281732
392132559,5621,bus_stop,O'Connor Drive,POINT (-79.3303764 43.6973466),43.6973466,-79.3303764
392132564,5621,bus_stop,Milton Road,POINT (-79.3322778 43.6970688),43.6970688,-79.3322778
392132565,5621,bus_stop,Milton Road,POINT (-79.3324484 43.6971664),43.6971664,-79.3324484
392133808,5621,bus_stop,Derwyn Road,POINT (-79.3347366 43.6966851),43.6966851,-79.3347366
392133809,5621,bus_stop,Derwyn Road,POINT (-79.3349131 43.6965012),43.6965012,-79.3349131
392134177,5621,bus_stop,Athlone Road,POINT (-79.3373512 43.6961502),43.6961502,-79.3373512
392134952,5621,bus_stop,Northbrook Road,POINT (-79.3382833 43.6957031),43.6957031,-79.3382833
392136016,5621,bus_stop,St. Hubert Avenue,POINT (-79.3402678 43.6953342),43.6953342,-79.3402678
392137240,5621,bus_stop,Donlands Avenue,POINT (-79.3432122 43.6945192),43.6945192,-79.3432122
392137241,5621,bus_stop,Donlands Avenue,POINT (-79.343598 43.6946364),43.6946364,-79.343598
392145788,5621,bus_stop,Wolverton Avenue,POINT (-79.3452929 43.6941469),43.6941469,-79.3452929
392145793,5621,bus_stop,Warland Avenue,POINT (-79.3460493 43.6941564),43.6941564,-79.3460493
392145807,5621,bus_stop,Rivercourt Boulevard,POINT (-79.3481455 43.6937319),43.6937319,-79.3481455
392145891,5621,bus_stop,O'Connor Drive,POINT (-79.3500806 43.6930979),43.6930979,-79.3500806
392145892,5621,bus_stop,Pape Avenue,POINT (-79.3500804 43.6933523),43.6933523,-79.3500804
392145893,5621,bus_stop,Pape Avenue,POINT (-79.3504298 43.6931266),43.6931266,-79.3504298
392146003,5621,bus_stop,O'Connor Drive,POINT (-79.3504933 43.6933803),43.6933803,-79.3504933
392146044,5621,bus_stop,Pape Avenue,POINT (-79.3503445 43.6935861),43.6935861,-79.3503445
392154943,5621,bus_stop,York Road,POINT (-79.3838549 43.7458224),43.7458224,-79.3838549
392154944,5621,bus_stop,Valley Road,POINT (-79.3835178 43.744106),43.744106,-79.3835178
392154946,5621,bus_stop,Tudor Gate,POINT (-79.3831936 43.743692),43.743692,-79.3831936
392154947,5621,bus_stop,Bayview Ridge Crescent,POINT (-79.3831722 43.7423611),43.7423611,-79.3831722
392154948,5621,bus_stop,Arjay Crescent,POINT (-79.3827462 43.7401677),43.7401677,-79.3827462
392154949,5621,bus_stop,The Bridle Path,POINT (-79.382422 43.7385838),43.7385838,-79.382422
392154950,5621,bus_stop,The Bridle Path,POINT (-79.3821512 43.7383791),43.7383791,-79.3821512
392154951,5621,bus_stop,Post Road,POINT (-79.3820915 43.7365635),43.7365635,-79.3820915
392154953,5621,bus_stop,Post Road,POINT (-79.3818357 43.736793),43.736793,-79.3818357
392155846,5621,bus_stop,Lawrence Avenue East (York U Glendon Campus),POINT (-79.3822492 43.7277248),43.7277248,-79.3822492
392155847,5621,bus_stop,Lawrence Avenue East (York U Glendon Campus),POINT (-79.3815688 43.7273028),43.7273028,-79.3815688
392155849,5621,bus_stop,Wood Avenue,POINT (-79.3820566 43.7270715),43.7270715,-79.3820566
392156338,5621,bus_stop,Dawlish Avenue,POINT (-79.3797518 43.7243173),43.7243173,-79.3797518
392156339,5621,bus_stop,Valleyanna Drive,POINT (-79.3794365 43.7242108),43.7242108,-79.3794365
392156506,5621,bus_stop,Kilgour Road (CNIB),POINT (-79.3783309 43.7171092),43.7171092,-79.3783309
392156507,5621,bus_stop,Kilgour Road (CNIB),POINT (-79.3780269 43.717222),43.717222,-79.3780269
392156990,5621,bus_stop,Soudan Avenue,POINT (-79.3765016 43.7089313),43.7089313,-79.3765016
392156994,5621,bus_stop,Manor Road East,POINT (-79.3757628 43.7070558),43.7070558,-79.3757628
392156995,5621,bus_stop,Fleming Crescent,POINT (-79.3756129 43.7071996),43.7071996,-79.3756129
392157024,5621,bus_stop,Millwood Road,POINT (-79.3747311 43.704353),43.704353,-79.3747311
392157025,5621,bus_stop,Millwood Road,POINT (-79.37446 43.7041624),43.7041624,-79.37446
392157113,5621,bus_stop,Bayview Avenue,POINT (-79.3745717 43.7029555),43.7029555,-79.3745717
392157114,5621,bus_stop,Bayview Avenue,POINT (-79.3746947 43.7028186),43.7028186,-79.3746947
392157115,5621,bus_stop,Cleveland Street,POINT (-79.3779069 43.7022641),43.7022641,-79.3779069
392157116,5621,bus_stop,Cleveland Street,POINT (-79.3781502 43.7021057),43.7021057,-79.3781502
392157172,5621,bus_stop,Forman Avenue,POINT (-79.380735 43.7015668),43.7015668,-79.380735
392157173,5621,bus_stop,Forman Avenue,POINT (-79.380506 43.7017404),43.7017404,-79.380506
392157174,5621,bus_stop,Belle Ayre Boulevard,POINT (-79.3831506 43.7011771),43.7011771,-79.3831506
392157175,5621,bus_stop,Belle Ayre Boulevard,POINT (-79.383406 43.7010142),43.7010142,-79.383406
392853224,5621,bus_stop,Haldon Avenue,POINT (-79.3114279 43.697902),43.697902,-79.3114279
392856657,5621,bus_stop,Gledhill Avenue,POINT (-79.3132743 43.6970946),43.6970946,-79.3132743
392856658,5621,bus_stop,Gledhill Avenue,POINT (-79.313446 43.6969421),43.6969421,-79.313446
393548843,5621,bus_stop,Willcocks Street,POINT (-79.4011154 43.6611246),43.6611246,-79.4011154
394814493,5621,bus_stop,Ashbridge's Bay Loop,POINT (-79.3091265 43.6633529),43.6633529,-79.3091265
395352542,5621,bus_stop,Eglinton Avenue East,POINT (-79.3901329 43.7088727),43.7088727,-79.3901329
400705137,5621,bus_stop,Howard Street,POINT (-79.3708755 43.6711461),43.6711461,-79.3708755
400705138,5621,bus_stop,St James Avenue,POINT (-79.37006 43.6697324),43.6697324,-79.37006
400705139,5621,bus_stop,St James Avenue,POINT (-79.3702656 43.6696459),43.6696459,-79.3702656
400705141,5621,bus_stop,Wellesley Street East,POINT (-79.3695748 43.6679753),43.6679753,-79.3695748
400705142,5621,bus_stop,Howard Street,POINT (-79.3707856 43.6716504),43.6716504,-79.3707856
400705144,5621,bus_stop,Wellesley Street East,POINT (-79.3696369 43.6686398),43.6686398,-79.3696369
400705352,5621,bus_stop,Winchester Street,POINT (-79.3687426 43.6659463),43.6659463,-79.3687426
400705353,5621,bus_stop,Winchester Street,POINT (-79.3684791 43.6657733),43.6657733,-79.3684791
400705358,5621,bus_stop,Carlton Street,POINT (-79.3681095 43.6643647),43.6643647,-79.3681095
400706188,5621,bus_stop,Oak Street,POINT (-79.3667218 43.660899),43.660899,-79.3667218
400706189,5621,bus_stop,Oak Street,POINT (-79.3663468 43.6605747),43.6605747,-79.3663468
400706607,5621,bus_stop,Dundas Street East,POINT (-79.366147 43.6595205),43.6595205,-79.366147
400706608,5621,bus_stop,Dundas Street East,POINT (-79.3658214 43.659227),43.659227,-79.3658214
400707899,5621,bus_stop,Shuter Street,POINT (-79.3651482 43.6570337),43.6570337,-79.3651482
400707901,5621,bus_stop,Shuter Street,POINT (-79.3648547 43.6568599),43.6568599,-79.3648547
400707916,5621,bus_stop,Queen Street East,POINT (-79.3645986 43.6557218),43.6557218,-79.3645986
400707919,5621,bus_stop,Queen Street East,POINT (-79.3642783 43.65545),43.65545,-79.3642783
400913298,5621,bus_stop,Queen Street East,POINT (-79.3733723 43.6537957),43.6537957,-79.3733723
400913299,5621,bus_stop,Queen Street East,POINT (-79.3731002 43.6536041),43.6536041,-79.3731002
400919121,5621,bus_stop,Queen Street East,POINT (-79.3791256 43.6523155),43.6523155,-79.3791256
400919124,5621,bus_stop,Queen Street East,POINT (-79.3794099 43.65255),43.65255,-79.3794099
400931968,5621,bus_stop,Shuter Street,POINT (-79.3798132 43.6539742),43.6539742,-79.3798132
400931969,5621,bus_stop,Shuter Street,POINT (-79.3801145 43.6541265),43.6541265,-79.3801145
400962132,5621,bus_stop,Dundas Street,POINT (-79.3807678 43.6562214),43.6562214,-79.3807678
400962136,5621,bus_stop,Dundas Street,POINT (-79.3810812 43.6565404),43.6565404,-79.3810812
400962140,5621,bus_stop,Elm Street,POINT (-79.3814507 43.6578768),43.6578768,-79.3814507
400962144,5621,bus_stop,Elm Street,POINT (-79.3817132 43.657989),43.657989,-79.3817132
400971680,5621,bus_stop,,POINT (-79.3826247 43.6600107),43.6600107,-79.3826247
400971681,5621,bus_stop,,POINT (-79.3823623 43.6600113),43.6600113,-79.3823623
401274293,5621,bus_stop,Davenport Rd at Old Weston Rd,POINT (-79.4620493 43.6709054),43.6709054,-79.4620493
401361973,5621,bus_stop,Saskatchewan Rd at Dufferin St,POINT (-79.4244849 43.6327803),43.6327803,-79.4244849
401513672,5621,bus_stop,Gerrard Street East,POINT (-79.3003157 43.6840698),43.6840698,-79.3003157
401513673,5621,bus_stop,Gerrard Street East,POINT (-79.3001921 43.6841983),43.6841983,-79.3001921
401514404,5621,bus_stop,Danforth Avenue,POINT (-79.3019812 43.6882969),43.6882969,-79.3019812
401514411,5621,bus_stop,Danforth Avenue,POINT (-79.3018696 43.6879034),43.6879034,-79.3018696
401516435,5621,bus_stop,Main Street Station,POINT (-79.3012061 43.6891405),43.6891405,-79.3012061
401516436,5621,bus_stop,Main Street Station,POINT (-79.3012838 43.6892547),43.6892547,-79.3012838
401516437,5621,bus_stop,Main Street Station,POINT (-79.3014545 43.6892066),43.6892066,-79.3014545
401516438,5621,bus_stop,Main Street Station,POINT (-79.3019411 43.689078),43.689078,-79.3019411
401516441,5621,bus_stop,Main Street Station,POINT (-79.3016858 43.6891437),43.6891437,-79.3016858
406186421,5621,bus_stop,Harbour Street,POINT (-79.3773196 43.6416741),43.6416741,-79.3773196
406186424,5621,bus_stop,,POINT (-79.3770204 43.6416559),43.6416559,-79.3770204
409183058,5621,bus_stop,Sherbourne Street,POINT (-79.3769714 43.6721988),43.6721988,-79.3769714
409189374,5621,bus_stop,Fleet Street,POINT (-79.3999844 43.6368786),43.6368786,-79.3999844
410798853,5621,bus_stop,Tangiers Road,POINT (-79.4884763 43.7639104),43.7639104,-79.4884763
410798854,5621,bus_stop,Tangiers Road,POINT (-79.4880615 43.7642833),43.7642833,-79.4880615
410799724,5621,bus_stop,Finch Avenue at Alness Road,POINT (-79.471089 43.768059),43.768059,-79.471089
410799725,5621,bus_stop,Finch Avenue at Champagne Drive,POINT (-79.4717405 43.7676415),43.7676415,-79.4717405
410799734,5621,bus_stop,Wilmington Avenue,POINT (-79.4609423 43.7700346),43.7700346,-79.4609423
410799735,5621,bus_stop,Wilmington Avenue,POINT (-79.4605837 43.7704239),43.7704239,-79.4605837
410799738,5621,bus_stop,Goldfinch Court,POINT (-79.450623 43.7722075),43.7722075,-79.450623
410799739,5621,bus_stop,Torresdale Avenue,POINT (-79.4514006 43.7723535),43.7723535,-79.4514006
410801406,5621,bus_stop,Warden Avenue at Comstock Road,POINT (-79.2847368 43.7214045),43.7214045,-79.2847368
410951123,5621,bus_stop,Davenport Road,POINT (-79.415545 43.6765432),43.6765432,-79.415545
410951127,5621,bus_stop,Bathurst Street,POINT (-79.4159738 43.6766188),43.6766188,-79.4159738
410951136,5621,bus_stop,Davenport Road,POINT (-79.4159939 43.6769695),43.6769695,-79.4159939
410951138,5621,bus_stop,Bathurst Street,POINT (-79.4153685 43.6767996),43.6767996,-79.4153685
410951143,5621,bus_stop,Nina Street,POINT (-79.416805 43.6797375),43.6797375,-79.416805
410955791,5621,bus_stop,Christie Station,POINT (-79.4185289 43.6640809),43.6640809,-79.4185289
410956764,5621,bus_stop,Dartnell Avenue,POINT (-79.411821 43.6767229),43.6767229,-79.411821
410959547,5621,bus_stop,1138 Bathurst Street,POINT (-79.4153508 43.6753606),43.6753606,-79.4153508
410959550,5621,bus_stop,Bathurst Street at Bridgman Avenue,POINT (-79.4149935 43.6750842),43.6750842,-79.4149935
410978447,5621,bus_stop,Palmerston Avenue,POINT (-79.4168471 43.6725279),43.6725279,-79.4168471
410981719,5621,bus_stop,Manning Avenue,POINT (-79.4183504 43.6723514),43.6723514,-79.4183504
410981720,5621,bus_stop,Manning Avenue,POINT (-79.4186789 43.6721165),43.6721165,-79.4186789
410986422,5621,bus_stop,Christie Street,POINT (-79.4213668 43.6717346),43.6717346,-79.4213668
410986911,5621,bus_stop,Dupont Street,POINT (-79.4217074 43.671735),43.671735,-79.4217074
410997173,5621,bus_stop,Dupont Street,POINT (-79.4213903 43.6715255),43.6715255,-79.4213903
410997174,5621,bus_stop,Christie Street,POINT (-79.4217353 43.6715182),43.6715182,-79.4217353
410997177,5621,bus_stop,Lambertlodge Avenue,POINT (-79.4224083 43.6736565),43.6736565,-79.4224083
410997179,5621,bus_stop,Melita Avenue,POINT (-79.4222548 43.6738361),43.6738361,-79.4222548
410997186,5621,bus_stop,Davenport Road,POINT (-79.423232 43.6756701),43.6756701,-79.423232
410997188,5621,bus_stop,Davenport Road,POINT (-79.4228264 43.6754744),43.6754744,-79.4228264
410997189,5621,bus_stop,Christie Street,POINT (-79.4235085 43.6755532),43.6755532,-79.4235085
410997191,5621,bus_stop,Christie Street,POINT (-79.4231982 43.6754695),43.6754695,-79.4231982
410999224,5621,bus_stop,Davenport Rd at Wychwood Park,POINT (-79.4193118 43.6766832),43.6766832,-79.4193118
410999225,5621,bus_stop,,POINT (-79.4195231 43.6764458),43.6764458,-79.4195231
411668709,5621,bus_stop,Lakeshore Road At Street Lawrence Drive,POINT (-79.5818219 43.5549657),43.5549657,-79.5818219
411668711,5621,bus_stop,Hurontario Street At Mineola Road,POINT (-79.5903232 43.5616455),43.5616455,-79.5903232
411668712,5621,bus_stop,,POINT (-79.5924873 43.5631955),43.5631955,-79.5924873
411668713,5621,bus_stop,Hampshire Crescent,POINT (-79.5955249 43.5653555),43.5653555,-79.5955249
411670102,5621,bus_stop,Bloor Street at Golden Orchard Drive,POINT (-79.5964999 43.6147879),43.6147879,-79.5964999
411670124,5621,bus_stop,Bloor Street West of Fieldgate Drive,POINT (-79.58975 43.6213589),43.6213589,-79.58975
411670125,5621,bus_stop,Bloor Street East of Havenwood Drive,POINT (-79.5899976 43.6208521),43.6208521,-79.5899976
411670126,5621,bus_stop,Bloor Street at Fieldgate Drive,POINT (-79.5877855 43.6228535),43.6228535,-79.5877855
411670128,5621,bus_stop,Bloor Street West of Bridgewood Drive,POINT (-79.586036 43.6247908),43.6247908,-79.586036
411670129,5621,bus_stop,Bloor Street East of Fieldgate Drive,POINT (-79.5862535 43.6242808),43.6242808,-79.5862535
411670130,5621,bus_stop,Bloor Street at Bridgewood Drive,POINT (-79.5846566 43.6257278),43.6257278,-79.5846566
411670156,5621,bus_stop,Islington Subway Drop-off,POINT (-79.5238718 43.6452317),43.6452317,-79.5238718
412356320,5621,bus_stop,Dundas Street East,POINT (-79.3746764 43.6571472),43.6571472,-79.3746764
412356321,5621,bus_stop,Dundas Street East,POINT (-79.3744123 43.6569339),43.6569339,-79.3744123
414572022,5621,bus_stop,Neilson Drive,POINT (-79.5619786 43.6276323),43.6276323,-79.5619786
414572035,5621,bus_stop,Dundas Street At Wharton Way,POINT (-79.5732403 43.619424),43.619424,-79.5732403
414572042,5621,bus_stop,Mattawa Avenue,POINT (-79.5782503 43.6146757),43.6146757,-79.5782503
414572043,5621,bus_stop,Mattawa Avenue,POINT (-79.5782044 43.6141827),43.6141827,-79.5782044
414574530,5621,bus_stop,Dundas Street West Of Dixie Road,POINT (-79.58484 43.608723),43.608723,-79.58484
414607098,5621,bus_stop,Leduc Drive,POINT (-79.5566602 43.7180788),43.7180788,-79.5566602
414610066,5621,bus_stop,St Andrews Boulevard,POINT (-79.5487997 43.7014105),43.7014105,-79.5487997
414610067,5621,bus_stop,St Andrews Boulevard,POINT (-79.548455 43.701148),43.701148,-79.548455
414610073,5621,bus_stop,Islington Ave at The Westway South Side,POINT (-79.5428744 43.688323),43.688323,-79.5428744
414945696,5621,bus_stop,Mineola Road,POINT (-79.5905046 43.5614754),43.5614754,-79.5905046
414983776,5621,bus_stop,,POINT (-79.5479756 43.6187859),43.6187859,-79.5479756
414983783,5621,bus_stop,Sherway Gardens Rd at Sherway Gate,POINT (-79.5580365 43.6098073),43.6098073,-79.5580365
414983788,5621,bus_stop,The East Mall,POINT (-79.5437635 43.612215),43.612215,-79.5437635
414983797,5621,bus_stop,Kiping Ave at Evans Avenue,POINT (-79.5439686 43.6117247),43.6117247,-79.5439686
414983798,5621,bus_stop,Medulla Avenue,POINT (-79.5455631 43.6212443),43.6212443,-79.5455631
414983800,5621,bus_stop,Atomic Avenue,POINT (-79.542722 43.6221042),43.6221042,-79.542722
415000069,5621,bus_stop,Rathburn Rd at The East Mall,POINT (-79.5637477 43.6549539),43.6549539,-79.5637477
415000716,5621,bus_stop,Rathburn Rd at The East Mall,POINT (-79.5648409 43.6550026),43.6550026,-79.5648409
415001002,5621,bus_stop,Rathburn Rd at The West Mall,POINT (-79.5727294 43.6528389),43.6528389,-79.5727294
415001307,5621,bus_stop,Rathburn Road,POINT (-79.5723011 43.6527184),43.6527184,-79.5723011
415001444,5621,bus_stop,Rathburn Road,POINT (-79.5725385 43.6527069),43.6527069,-79.5725385
415001891,5621,bus_stop,Rathburn Rd at The West Mall,POINT (-79.5721543 43.6532737),43.6532737,-79.5721543
415002081,5621,bus_stop,Wellesworth Dr at The West Mall,POINT (-79.5726812 43.6551448),43.6551448,-79.5726812
415002089,5621,bus_stop,Wellesworth Dr at Dixfield Dr,POINT (-79.5728839 43.6553664),43.6553664,-79.5728839
415002223,5621,bus_stop,Renforth Drive,POINT (-79.5799031 43.6514733),43.6514733,-79.5799031
415002233,5621,bus_stop,Renforth Drive,POINT (-79.5797664 43.6512198),43.6512198,-79.5797664
415002253,5621,bus_stop,Wellesworth Dr at Torrington Dr,POINT (-79.5766199 43.6552159),43.6552159,-79.5766199
415002443,5621,bus_stop,Wellesworth Dr at Torrington Dr,POINT (-79.5765489 43.6553975),43.6553975,-79.5765489
415002465,5621,bus_stop,Wellesworth Dr at Clumber Rd,POINT (-79.5775912 43.6572169),43.6572169,-79.5775912
415742195,5622,bus_station,Port Credit GO,POINT (-79.5873519 43.5555244),43.5555244,-79.5873519
416035106,5621,bus_stop,West Deane Park Drive,POINT (-79.5689118 43.6591485),43.6591485,-79.5689118
416555314,5621,bus_stop,Danforth Avenue,POINT (-79.3237153 43.6834778),43.6834778,-79.3237153
417218227,5621,bus_stop,The East Mall,POINT (-79.5488284 43.620514),43.620514,-79.5488284
417218228,5621,bus_stop,,POINT (-79.5412856 43.6243936),43.6243936,-79.5412856
417218229,5621,bus_stop,Newbridge Road,POINT (-79.5419047 43.6258369),43.6258369,-79.5419047
417218230,5621,bus_stop,Shorncliffe Rd at Lockport Ave,POINT (-79.5426777 43.6275776),43.6275776,-79.5426777
417218231,5621,bus_stop,,POINT (-79.5431886 43.6292366),43.6292366,-79.5431886
417218237,5621,bus_stop,Dundas Street at Wilmar Road,POINT (-79.5411334 43.6347347),43.6347347,-79.5411334
417218238,5621,bus_stop,Subway Crescent,POINT (-79.540158 43.635784),43.635784,-79.540158
417218242,5621,bus_stop,Green Lanes,POINT (-79.5260909 43.6442185),43.6442185,-79.5260909
417228732,5621,bus_stop,Dixon Road at Carlingview Drive,POINT (-79.5958538 43.6865984),43.6865984,-79.5958538
417228733,5621,bus_stop,Dixon Road at Carlingview Drive,POINT (-79.5951485 43.6869065),43.6869065,-79.5951485
417228738,5621,bus_stop,Dixon Road,POINT (-79.5706367 43.6914565),43.6914565,-79.5706367
417230639,5621,bus_stop,Dixon Rd at Wincott Dr,POINT (-79.5523599 43.6956356),43.6956356,-79.5523599
417230640,5621,bus_stop,Dixon Rd at Chetta Pl,POINT (-79.5517356 43.6960525),43.6960525,-79.5517356
417230652,5621,bus_stop,Golfwood Heights,POINT (-79.5400569 43.698401),43.698401,-79.5400569
417230653,5621,bus_stop,Golfwood Heights,POINT (-79.5396794 43.6987393),43.6987393,-79.5396794
417230654,5621,bus_stop,Scarlett Rd at Lockheed Blvd,POINT (-79.5252021 43.6997287),43.6997287,-79.5252021
417230655,5621,bus_stop,Lawrence Ave at Scarlett Rd,POINT (-79.522321 43.6983717),43.6983717,-79.522321
417231607,5621,bus_stop,Good Shepherd Court,POINT (-79.458613 43.7131578),43.7131578,-79.458613
417231608,5621,bus_stop,Apex Road,POINT (-79.4584343 43.7134382),43.7134382,-79.4584343
417232582,5621,bus_stop,250 Lawrence Avenue West,POINT (-79.4133376 43.7226386),43.7226386,-79.4133376
417250934,5621,bus_stop,Bannatyne Dr at Ridewood Dr,POINT (-79.3644036 43.7580578),43.7580578,-79.3644036
417252393,5621,bus_stop,Davean Dr at Woodsworth Rd,POINT (-79.3646233 43.7626571),43.7626571,-79.3646233
417254710,5621,bus_stop,Leslie St at Bannatyne Dr,POINT (-79.3611488 43.7589202),43.7589202,-79.3611488
417254711,5621,bus_stop,Leslie St at Bannatyne Dr,POINT (-79.3613854 43.7584587),43.7584587,-79.3613854
417737908,5621,bus_stop,Banbury Road,POINT (-79.370169 43.7516716),43.7516716,-79.370169
417737909,5621,bus_stop,Chipstead Road,POINT (-79.3706983 43.7512892),43.7512892,-79.3706983
418831270,5621,bus_stop,,POINT (-79.5805942 43.661014),43.661014,-79.5805942
418831311,5621,bus_stop,Wellesworth Dr at Eringate Dr,POINT (-79.5806204 43.6607102),43.6607102,-79.5806204
418831911,5621,bus_stop,,POINT (-79.5766379 43.6623308),43.6623308,-79.5766379
418832064,5621,bus_stop,Renforth Drive at Eglinton Avenue,POINT (-79.5872309 43.6660813),43.6660813,-79.5872309
418833527,5621,bus_stop,Eglinton Avenue West,POINT (-79.5711812 43.6713976),43.6713976,-79.5711812
418833555,5621,bus_stop,The East Mall,POINT (-79.57104 43.6721295),43.6721295,-79.57104
418833728,5621,bus_stop,Eglinton Avenue West,POINT (-79.5710344 43.6717308),43.6717308,-79.5710344
418833854,5621,bus_stop,900 The East Mall,POINT (-79.5717339 43.6697696),43.6697696,-79.5717339
418834120,5621,bus_stop,,POINT (-79.5777708 43.6707188),43.6707188,-79.5777708
418834149,5621,bus_stop,Eglinton Avenue at Renforth Drive,POINT (-79.587305 43.6664545),43.6664545,-79.587305
418834296,5621,bus_stop,,POINT (-79.5841309 43.6651994),43.6651994,-79.5841309
418835970,5621,bus_stop,Wellesworth Dr at Rangoon Rd,POINT (-79.5790926 43.6662052),43.6662052,-79.5790926
418837304,5621,bus_stop,Renforth Drive At Convair Drive,POINT (-79.5930314 43.6720163),43.6720163,-79.5930314
418838082,5621,bus_stop,Renforth Drive At Convair Drive,POINT (-79.5936518 43.6723476),43.6723476,-79.5936518
418838973,5621,bus_stop,Carlingview Drive North Of International Boulevard,POINT (-79.5911502 43.6774192),43.6774192,-79.5911502
420539073,5621,bus_stop,East Lynn Avenue,POINT (-79.3153536 43.68505),43.68505,-79.3153536
420539074,5621,bus_stop,Woodmount Avenue,POINT (-79.3151512 43.6852702),43.6852702,-79.3151512
420539075,5621,bus_stop,Glebemount Avenue,POINT (-79.3177409 43.6845474),43.6845474,-79.3177409
420539076,5621,bus_stop,Glebemount Avenue,POINT (-79.3175661 43.6847394),43.6847394,-79.3175661
420539099,5621,bus_stop,Woodmount Avenue,POINT (-79.3207823 43.6840487),43.6840487,-79.3207823
420539100,5621,bus_stop,Hillingdon Avenue,POINT (-79.3212134 43.6837912),43.6837912,-79.3212134
420539102,5621,bus_stop,Coxwell Avenue,POINT (-79.323477 43.6834611),43.6834611,-79.323477
420539103,5621,bus_stop,Coxwell Avenue,POINT (-79.323685 43.6832448),43.6832448,-79.323685
420539104,5621,bus_stop,Danforth Avenue,POINT (-79.3234403 43.6832419),43.6832419,-79.3234403
420539107,5621,bus_stop,Monarch Park Avenue,POINT (-79.3270725 43.6826964),43.6826964,-79.3270725
420539108,5621,bus_stop,Monarch Park Avenue,POINT (-79.3272494 43.682486),43.682486,-79.3272494
420539113,5621,bus_stop,Linnsmore Crescent,POINT (-79.3299506 43.681926),43.681926,-79.3299506
420539114,5621,bus_stop,Linnsmore Crescent,POINT (-79.3296786 43.6821272),43.6821272,-79.3296786
420539121,5621,bus_stop,Greenwood Avenue,POINT (-79.3322533 43.6815672),43.6815672,-79.3322533
420539122,5621,bus_stop,Greenwood Avenue,POINT (-79.3325615 43.6813442),43.6813442,-79.3325615
420539140,5621,bus_stop,Donlands Avenue,POINT (-79.3370282 43.6805607),43.6805607,-79.3370282
420539141,5621,bus_stop,Donlands Avenue,POINT (-79.3374419 43.6803099),43.6803099,-79.3374419
420542912,5621,bus_stop,Jones Avenue,POINT (-79.340012 43.6799741),43.6799741,-79.340012
420542913,5621,bus_stop,Jones Avenue,POINT (-79.3402732 43.6797466),43.6797466,-79.3402732
420542914,5621,bus_stop,Woodycrest Avenue,POINT (-79.3416345 43.6796638),43.6796638,-79.3416345
420542921,5621,bus_stop,Pape Avenue,POINT (-79.3447435 43.6790563),43.6790563,-79.3447435
420542922,5621,bus_stop,Pape Avenue,POINT (-79.3449396 43.678832),43.678832,-79.3449396
420542923,5621,bus_stop,Carlaw Avenue,POINT (-79.3472337 43.6785683),43.6785683,-79.3472337
420542924,5621,bus_stop,Carlaw Avenue,POINT (-79.3474623 43.6783505),43.6783505,-79.3474623
420542929,5621,bus_stop,Chester Avenue,POINT (-79.3518471 43.6776263),43.6776263,-79.3518471
420542930,5621,bus_stop,Chester Avenue,POINT (-79.3519904 43.677465),43.677465,-79.3519904
420542933,5621,bus_stop,Playter Boulevard,POINT (-79.3550029 43.6770067),43.6770067,-79.3550029
420542934,5621,bus_stop,Playter Boulevard,POINT (-79.3551304 43.6768315),43.6768315,-79.3551304
420542937,5621,bus_stop,Broadview Avenue,POINT (-79.3590639 43.6760688),43.6760688,-79.3590639
420542938,5621,bus_stop,Broadview Avenue,POINT (-79.3586274 43.6763507),43.6763507,-79.3586274
420788304,5621,bus_stop,Burnhamthorpe Rd at The East Mall,POINT (-79.5596351 43.6464922),43.6464922,-79.5596351
420788663,5621,bus_stop,Burnhamthorpe Road,POINT (-79.5675491 43.6447312),43.6447312,-79.5675491
420788722,5621,bus_stop,Burnhamthorpe Road,POINT (-79.5669262 43.6443594),43.6443594,-79.5669262
420789962,5621,bus_stop,Anglesey Boulevard,POINT (-79.5316701 43.6638842),43.6638842,-79.5316701
420790181,5621,bus_stop,Rathburn Rd at Islington Ave,POINT (-79.5317101 43.6623899),43.6623899,-79.5317101
420790457,5621,bus_stop,Islington Avenue at Rathburn Road,POINT (-79.5311831 43.6622183),43.6622183,-79.5311831
421336356,5621,bus_stop,Valley Woods Rd at York Mills Rd,POINT (-79.3327439 43.7589758),43.7589758,-79.3327439
421358841,5621,bus_stop,York Mills Rd at Sandover Dr,POINT (-79.3338766 43.7592131),43.7592131,-79.3338766
421358844,5621,bus_stop,York Mills Rd at Sandover Dr,POINT (-79.3317151 43.7598507),43.7598507,-79.3317151
421358847,5621,bus_stop,York Mills Rd at Valley Woods Rd,POINT (-79.3319491 43.759626),43.759626,-79.3319491
421358996,5621,bus_stop,Underhill Dr at Brookbanks Dr,POINT (-79.3275547 43.7532382),43.7532382,-79.3275547
421370840,5621,bus_stop,,POINT (-79.3264472 43.7482011),43.7482011,-79.3264472
421370843,5621,bus_stop,,POINT (-79.3261873 43.748114),43.748114,-79.3261873
421370953,5621,bus_stop,Roanoke Road,POINT (-79.3251963 43.7421653),43.7421653,-79.3251963
421370955,5621,bus_stop,Roanoke Road,POINT (-79.3253547 43.7421081),43.7421081,-79.3253547
421370972,5621,bus_stop,Corner Brook Drive,POINT (-79.3261458 43.7438981),43.7438981,-79.3261458
421370975,5621,bus_stop,,POINT (-79.325928 43.7439142),43.7439142,-79.325928
421370981,5621,bus_stop,,POINT (-79.3260013 43.7453839),43.7453839,-79.3260013
421370983,5621,bus_stop,,POINT (-79.3257895 43.7453739),43.7453739,-79.3257895
421373526,5621,bus_stop,Underhill Dr at Brookbanks Dr,POINT (-79.3276096 43.7534334),43.7534334,-79.3276096
421382183,5621,bus_stop,York Mills Rd at Valentine Dr,POINT (-79.3411322 43.7572459),43.7572459,-79.3411322
421382187,5621,bus_stop,York Mills Rd at Lochinvar Crescent,POINT (-79.3389455 43.7577077),43.7577077,-79.3389455
423019130,5621,bus_stop,Combermere Drive,POINT (-79.3193035 43.7582794),43.7582794,-79.3193035
423019131,5621,bus_stop,Combermere Drive,POINT (-79.3194184 43.7580431),43.7580431,-79.3194184
423019166,5621,bus_stop,Victoria Park Avenue,POINT (-79.3149993 43.7580868),43.7580868,-79.3149993
423019168,5621,bus_stop,Ellesmere Road,POINT (-79.3151354 43.7581779),43.7581779,-79.3151354
423026834,5621,bus_stop,Three Valleys Dr at Groveland Cres,POINT (-79.3350835 43.7516556),43.7516556,-79.3350835
423026835,5621,bus_stop,Three Valleys Dr at Laurentide Dr,POINT (-79.3363156 43.7515192),43.7515192,-79.3363156
423042314,5621,bus_stop,Laurentide Dr at Three Valleys Dr,POINT (-79.336768 43.7517938),43.7517938,-79.336768
423042315,5621,bus_stop,Valley Woods Road at Brookbanks Dr,POINT (-79.3319144 43.7524041),43.7524041,-79.3319144
423042316,5621,bus_stop,Brookbanks Dr at Valley Woods Road,POINT (-79.3319443 43.7521892),43.7521892,-79.3319443
423042326,5621,bus_stop,Underhill Dr at Cassandra Blvd,POINT (-79.3261705 43.7523768),43.7523768,-79.3261705
423042327,5621,bus_stop,Underhill Dr at Cassandra Blvd,POINT (-79.3263378 43.7523498),43.7523498,-79.3263378
423042355,5621,bus_stop,Curlew Drive,POINT (-79.3118256 43.7474829),43.7474829,-79.3118256
423042453,5621,bus_stop,Rowena Drive,POINT (-79.3132263 43.751625),43.751625,-79.3132263
423042454,5621,bus_stop,Rowena Drive,POINT (-79.3126065 43.7509598),43.7509598,-79.3126065
423775209,5621,bus_stop,90 Railside Road,POINT (-79.3243038 43.7362128),43.7362128,-79.3243038
423775211,5621,bus_stop,150 Railside Road,POINT (-79.326633 43.7376852),43.7376852,-79.326633
423775213,5621,bus_stop,190 Railside Road,POINT (-79.3248316 43.739613),43.739613,-79.3248316
423777411,5621,bus_stop,Brookbanks Dr at Valley Woods Road,POINT (-79.3316654 43.7523462),43.7523462,-79.3316654
424028662,5621,bus_stop,Runnymede Station,POINT (-79.4755723 43.6518409),43.6518409,-79.4755723
427632890,5621,bus_stop,Wilmington Ave at Overbrook Pl,POINT (-79.4566558 43.7625176),43.7625176,-79.4566558
427690477,5621,bus_stop,,POINT (-79.2641268 43.7693066),43.7693066,-79.2641268
427690480,5621,bus_stop,,POINT (-79.264438 43.7695664),43.7695664,-79.264438
427690484,5621,bus_stop,Ellesmere Rd at Brimley Rd,POINT (-79.2618382 43.7698207),43.7698207,-79.2618382
427706081,5621,bus_stop,Packard Boulevard,POINT (-79.2577879 43.7707001),43.7707001,-79.2577879
427706085,5621,bus_stop,Borough Approach West,POINT (-79.2574893 43.7710957),43.7710957,-79.2574893
427706088,5621,bus_stop,Borough Approach East,POINT (-79.2559077 43.7710521),43.7710521,-79.2559077
427706091,5621,bus_stop,Borough Approach East,POINT (-79.2550134 43.771629),43.771629,-79.2550134
427706276,5621,bus_stop,Applefield Drive,POINT (-79.2585257 43.7622376),43.7622376,-79.2585257
427706278,5621,bus_stop,St. Andrews Road,POINT (-79.2581352 43.7620002),43.7620002,-79.2581352
427706382,5621,bus_stop,Brimley Rd at Dorcot Ave,POINT (-79.2568948 43.7587388),43.7587388,-79.2568948
427706383,5621,bus_stop,Brimley Rd at Dorcot Ave,POINT (-79.2571944 43.7587298),43.7587298,-79.2571944
427711449,5621,bus_stop,Benleigh Drive,POINT (-79.2463432 43.7584688),43.7584688,-79.2463432
427711511,5621,bus_stop,St. Andrews Road,POINT (-79.2470189 43.7601574),43.7601574,-79.2470189
427711520,5621,bus_stop,St. Andrews Road,POINT (-79.2467128 43.7600501),43.7600501,-79.2467128
427714824,5621,bus_stop,Hollyhedge Drive (North),POINT (-79.2447215 43.7533273),43.7533273,-79.2447215
427714825,5621,bus_stop,Barrymore Road,POINT (-79.2445421 43.7505254),43.7505254,-79.2445421
427714826,5621,bus_stop,Seminole Avenue,POINT (-79.2446556 43.7479378),43.7479378,-79.2446556
427714827,5621,bus_stop,Tansley Avenue,POINT (-79.2447088 43.7461344),43.7461344,-79.2447088
427714832,5621,bus_stop,Savarin Street,POINT (-79.2451328 43.7433271),43.7433271,-79.2451328
427714834,5621,bus_stop,1290 Danforth Road,POINT (-79.2456388 43.7407871),43.7407871,-79.2456388
427714837,5621,bus_stop,Wetherby Drive,POINT (-79.2456401 43.7395746),43.7395746,-79.2456401
427714841,5621,bus_stop,,POINT (-79.2461168 43.737488),43.737488,-79.2461168
427714845,5621,bus_stop,Horton Boulevard,POINT (-79.2470318 43.736029),43.736029,-79.2470318
427714847,5621,bus_stop,Brimley Road,POINT (-79.2476825 43.7350144),43.7350144,-79.2476825
427714849,5621,bus_stop,Neston Avenue,POINT (-79.2489346 43.7331937),43.7331937,-79.2489346
427714852,5621,bus_stop,Glenshephard Drive (East),POINT (-79.2501241 43.7317457),43.7317457,-79.2501241
427714854,5621,bus_stop,Winter Avenue,POINT (-79.2517537 43.7296031),43.7296031,-79.2517537
427714856,5621,bus_stop,Wolfe Avenue,POINT (-79.2526993 43.7275946),43.7275946,-79.2526993
427714859,5621,bus_stop,Midland Avenue,POINT (-79.2538194 43.7254319),43.7254319,-79.2538194
427714862,5621,bus_stop,Magnolia Avenue,POINT (-79.2555944 43.7229818),43.7229818,-79.2555944
427714867,5621,bus_stop,Linden Avenue,POINT (-79.2570645 43.7211005),43.7211005,-79.2570645
427714868,5621,bus_stop,Hart Avenue,POINT (-79.2587549 43.718953),43.718953,-79.2587549
427714869,5621,bus_stop,Danforth Road at St. Clair Avenue East,POINT (-79.2599203 43.7170452),43.7170452,-79.2599203
